propertyId,propertyType,salePrice,area,areac,rooms,bathrooms,garages,city,zone,neighborhood,commonNeighborhood,adminPrice,companyName,propertyState,coordinates,link,builtTime,stratum,Extraction Date
4498-M5987932,"{'id': '3', 'nombre': 'Oficina'}",1400000000,144.0,154.0,,,3,"{'id': '1', 'nombre': 'Bogotá D.C.'}",,CHICO NORTE,Chico Norte,1735000,TIERRA HABITAT,Usado,"{'lon': -74.05378, 'lat': 4.67769}",https://www.metrocuadrado.com/inmueble/venta-oficina-bogota-chico-norte-3-garajes/4498-M5987932,Entre 5 y 10 años,6,2025-08-16
15939-M5832649,"{'id': '3', 'nombre': 'Oficina'}",1414000000,123.8,123.8,,1,2,"{'id': '1', 'nombre': 'Bogotá D.C.'}",,CHICO RESERVADO,Chico Reservado,2090000,Inmobiliaria CBM77,Usado,"{'lon': -74.05668, 'lat': 4.67657}",https://www.metrocuadrado.com/inmueble/venta-oficina-bogota-chico-reservado-1-banos-2-garajes/15939-M5832649,Entre 10 y 20 años,5,2025-08-16
470-M4952371,"{'id': '3', 'nombre': 'Oficina'}",1020000000,137.0,137.0,,,3,"{'id': '1', 'nombre': 'Bogotá D.C.'}","{'id': '1', 'nombre': 'Norte'}",BARRANCAS,Barrancas,1993000,Tutecho.net u0026 Asociados S.A,Usado,"{'lon': -74.0234, 'lat': 4.73244}",https://www.metrocuadrado.com/inmueble/venta-oficina-bogota-barrancas-3-garajes/470-M4952371,Entre 10 y 20 años,6,2025-08-16
MC5989093,"{'id': '3', 'nombre': 'Oficina'}",1495000000,113.0,113.0,,5,2,"{'id': '1', 'nombre': 'Bogotá D.C.'}","{'id': '3', 'nombre': 'Noroccidente'}",ESTORIL,PARALELO 108,950000,,Usado,"{'lon': -74.05716, 'lat': 4.6955657}",https://www.metrocuadrado.com/inmueble/venta-oficina-bogota-estoril-5-banos-2-garajes/MC5989093,Entre 10 y 20 años,5,2025-08-16
MC3777936,"{'id': '3', 'nombre': 'Oficina'}",620000000,73.0,73.0,,1,1,"{'id': '1', 'nombre': 'Bogotá D.C.'}","{'id': '4', 'nombre': 'Occidental'}",QUINTA PAREDES,QUINTA PAREDES   Salitre Modelia,700000,,Usado,"{'lon': -74.094734, 'lat': 4.635184}",https://www.metrocuadrado.com/inmueble/venta-oficina-bogota-quinta-paredes-1-banos-1-garajes/MC3777936,Entre 5 y 10 años,4,2025-08-16
