propertyId,propertyType,salePrice,area,areac,rooms,bathrooms,garages,city,zone,neighborhood,commonNeighborhood,adminPrice,companyName,propertyState,coordinates,link,builtTime,stratum,Extraction Date
13957-M5354778,"{'id': '3', 'nombre': 'Oficina'}",560000000,146.0,146.0,,3,0,"{'id': '3', 'nombre': 'Medellín'}","{'id': '35', 'nombre': 'Noroccidente'}",SAN JOAQUIN,Laureles,,Coninsa Inmobiliaria,Usado,"{'lon': -75.586075, 'lat': 6.2431135}",https://www.metrocuadrado.com/inmueble/venta-oficina-medellin-san-joaquin-3-banos/13957-M5354778,Entre 10 y 20 años,5,2025-06-12
13957-M5590601,"{'id': '3', 'nombre': 'Oficina'}",425000000,35.0,35.0,,1,1,"{'id': '3', 'nombre': 'Medellín'}","{'id': '38', 'nombre': 'Suroriente'}",ASTORGA,Astorga,,Coninsa Inmobiliaria,Usado,"{'lon': -75.575134, 'lat': 6.208472}",https://www.metrocuadrado.com/inmueble/venta-oficina-medellin-astorga-1-banos-1-garajes/13957-M5590601,Entre 10 y 20 años,7,2025-06-12
11167-M5775841,"{'id': '3', 'nombre': 'Oficina'}",420000000,52.85,52.85,,1,1,"{'id': '3', 'nombre': 'Medellín'}","{'id': '38', 'nombre': 'Suroriente'}",CASTROPOL,Manila,615650.0,ARRENDAMIENTOS LONDOÑO GOMEZ SA,Usado,"{'lon': -75.56948, 'lat': 6.22037}",https://www.metrocuadrado.com/inmueble/venta-oficina-medellin-castropol-1-banos-1-garajes/11167-M5775841,Más de 20 años,6,2025-06-12
687-M4096032,"{'id': '3', 'nombre': 'Oficina'}",730000000,77.0,77.0,,2,2,"{'id': '3', 'nombre': 'Medellín'}","{'id': '38', 'nombre': 'Suroriente'}",SIMESA,EL POBLADO,958277.0,PROINTEGRAL SA,Usado,"{'lon': -75.572205, 'lat': 6.2182345}",https://www.metrocuadrado.com/inmueble/venta-oficina-medellin-simesa-2-banos-2-garajes/687-M4096032,Entre 5 y 10 años,6,2025-06-12
687-M3997918,"{'id': '3', 'nombre': 'Oficina'}",9000000000,400.0,400.0,,5,0,"{'id': '3', 'nombre': 'Medellín'}","{'id': '36', 'nombre': 'Nororiente'}",PRADO,CENTRO,0.0,PROINTEGRAL SA,Usado,"{'lon': -75.563835, 'lat': 6.256842}",https://www.metrocuadrado.com/inmueble/venta-oficina-medellin-prado-5-banos/687-M3997918,Entre 10 y 20 años,4,2025-06-12
687-M5695671,"{'id': '3', 'nombre': 'Oficina'}",950000000,65.0,65.0,,1,1,"{'id': '3', 'nombre': 'Medellín'}","{'id': '38', 'nombre': 'Suroriente'}",LOS BALSOS NO 1,EL POBLADO,995000.0,PROINTEGRAL SA,Usado,"{'lon': -75.56481, 'lat': 6.190148}",https://www.metrocuadrado.com/inmueble/venta-oficina-medellin-los-balsos-no.1-1-banos-1-garajes/687-M5695671,Entre 5 y 10 años,6,2025-06-12
