propertyId,propertyType,salePrice,area,areac,rooms,bathrooms,garages,city,zone,neighborhood,commonNeighborhood,adminPrice,companyName,propertyState,coordinates,link,builtTime,stratum,Extraction Date
2412-M6673120,"{'id': '3', 'nombre': 'Oficina'}",550000000,55.0,55.0,,0,1,"{'id': '1', 'nombre': 'Bogotá D.C.'}",,LOS ANDES,Los Andes,860000.0,Oportunidades Inmobiliarias,Usado,"{'lon': -74.06669, 'lat': 4.690635}",https://www.metrocuadrado.com/inmueble/venta-oficina-bogota-los-andes-1-garajes/2412-M6673120,Entre 5 y 10 años,4,2026-06-05
15939-M5854769,"{'id': '3', 'nombre': 'Oficina'}",550000000,79.2,79.2,,,2,"{'id': '1', 'nombre': 'Bogotá D.C.'}",,ANTIGUO COUNTRY,Antiguo Country,1134035.0,Inmobiliaria CBM77,Usado,"{'lon': -74.05827, 'lat': 4.66953}",https://www.metrocuadrado.com/inmueble/venta-oficina-bogota-antiguo-country-2-garajes/15939-M5854769,Más de 20 años,5,2026-06-05
703-M6663791,"{'id': '3', 'nombre': 'Oficina'}",1140000000,127.0,127.0,,,3,"{'id': '1', 'nombre': 'Bogotá D.C.'}",,CHICO RESERVADO,Chico Reservado,1339000.0,SI SISTEMA INTEGRAL INMOBILIARIO,Usado,"{'lon': -74.04648, 'lat': 4.67858}",https://www.metrocuadrado.com/inmueble/venta-oficina-bogota-chico-reservado-3-garajes/703-M6663791,Más de 20 años,6,2026-06-05
MC6538839,"{'id': '3', 'nombre': 'Oficina'}",270000000,40.0,40.0,,2,0,"{'id': '1', 'nombre': 'Bogotá D.C.'}","{'id': '5', 'nombre': 'Centro'}",SAN DIEGO,PARQUE CENTRAL BAVARIA   Centro Internacional,,,Usado,"{'lon': -74.07142, 'lat': 4.6148753}",https://www.metrocuadrado.com/inmueble/venta-oficina-bogota-san-diego-2-banos/MC6538839,Entre 10 y 20 años,4,2026-06-05
5340-M4839686,"{'id': '3', 'nombre': 'Oficina'}",1600000000,145.0,160.0,,2,4,"{'id': '1', 'nombre': 'Bogotá D.C.'}",,PUENTE LARGO,Puente Largo,,Bon Habitat SAS,Usado,"{'lon': -74.05549, 'lat': 4.6937566}",https://www.metrocuadrado.com/inmueble/venta-oficina-bogota-puente-largo-2-banos-4-garajes/5340-M4839686,Entre 10 y 20 años,7,2026-06-05
20234-M5792543,"{'id': '3', 'nombre': 'Oficina'}",1100000000,118.0,118.0,,1,2,"{'id': '1', 'nombre': 'Bogotá D.C.'}",,PEPE SIERRA,Pepe Sierra,890000.0,MORE PLUS SAS,Usado,"{'lon': -74.055275, 'lat': 4.6944623}",https://www.metrocuadrado.com/inmueble/venta-oficina-bogota-pepe-sierra-1-banos-2-garajes/20234-M5792543,Más de 20 años,6,2026-06-05
21889-M6649193,"{'id': '3', 'nombre': 'Oficina'}",399000000,57.0,57.0,,2,0,"{'id': '1', 'nombre': 'Bogotá D.C.'}","{'id': '3', 'nombre': 'Noroccidente'}",LA CASTELLANA,LA CASTELLANA,778827.0,TRADE INMOBILIARIA,Usado,"{'lon': -74.060196, 'lat': 4.6845555}",https://www.metrocuadrado.com/inmueble/venta-oficina-bogota-la-castellana-2-banos/21889-M6649193,Entre 10 y 20 años,5,2026-06-05
20280-M6104077,"{'id': '3', 'nombre': 'Oficina'}",680000000,72.81,76.7,,1,1,"{'id': '1', 'nombre': 'Bogotá D.C.'}","{'id': '1', 'nombre': 'Norte'}",CHICO NORTE,CHICO,900000.0,GRIMAC S.A.S ,Usado,"{'lon': -74.05067, 'lat': 4.6785088}",https://www.metrocuadrado.com/inmueble/venta-oficina-bogota-chico-norte-1-banos-1-garajes/20280-M6104077,Entre 10 y 20 años,6,2026-06-05
10457-M6154493,"{'id': '3', 'nombre': 'Oficina'}",2099999999,146.0,146.0,,4,4,"{'id': '1', 'nombre': 'Bogotá D.C.'}","{'id': '1', 'nombre': 'Norte'}",CHICO NORTE ET III,SANTA BARBARA CENTRAL,0.0,PROMOTORES DE BIENES INMOBILIARIOS S.A.S,Usado,"{'lon': -74.0491, 'lat': 4.6822505}",https://www.metrocuadrado.com/inmueble/venta-oficina-bogota-chico-norte-et-iii-4-banos-4-garajes/10457-M6154493,Entre 10 y 20 años,5,2026-06-05
3664-M5973919,"{'id': '3', 'nombre': 'Oficina'}",11000000000,763.0,763.0,,5,4,"{'id': '1', 'nombre': 'Bogotá D.C.'}","{'id': '1', 'nombre': 'Norte'}",CHICO NORTE,Parque 93,6500000.0,Velsot y Cia S en C,Usado,"{'lon': -74.04828, 'lat': 4.6749}",https://www.metrocuadrado.com/inmueble/venta-oficina-bogota-chico-norte-5-banos-4-garajes/3664-M5973919,Entre 0 y 5 años,6,2026-06-05
10457-M6557119,"{'id': '3', 'nombre': 'Oficina'}",1753000000,142.0,142.0,,3,3,"{'id': '1', 'nombre': 'Bogotá D.C.'}","{'id': '1', 'nombre': 'Norte'}",SANTA ANA OCCIDENTAL,SANTA ANA OCCIDENTAL,2700000.0,PROMOTORES DE BIENES INMOBILIARIOS S.A.S,Usado,"{'lon': -74.037125, 'lat': 4.6870174}",https://www.metrocuadrado.com/inmueble/venta-oficina-bogota-santa-ana-occidental-3-banos-3-garajes/10457-M6557119,Entre 10 y 20 años,5,2026-06-05
5161-M6735828,"{'id': '3', 'nombre': 'Oficina'}",2250000000,540.0,540.0,,5,3,"{'id': '1', 'nombre': 'Bogotá D.C.'}","{'id': '2', 'nombre': 'Chapinero'}",SAGRADO CORAZON,CENTRO INTERNACIONAL ,5600000.0,Grupo Terranova,Usado,"{'lon': -74.067154, 'lat': 4.6228275}",https://www.metrocuadrado.com/inmueble/venta-oficina-bogota-sagrado-corazon-5-banos-3-garajes/5161-M6735828,Entre 10 y 20 años,4,2026-06-05
21889-M6649220,"{'id': '3', 'nombre': 'Oficina'}",310000000,48.0,48.0,,2,1,"{'id': '1', 'nombre': 'Bogotá D.C.'}","{'id': '1', 'nombre': 'Norte'}",SANTA BARBARA OCCIDENTAL,SANTA BARBARA,932400.0,TRADE INMOBILIARIA,Usado,"{'lon': -74.04357, 'lat': 4.6997495}",https://www.metrocuadrado.com/inmueble/venta-oficina-bogota-santa-barbara-occidental-2-banos-1-garajes/21889-M6649220,Entre 10 y 20 años,5,2026-06-05
10457-M6557095,"{'id': '3', 'nombre': 'Oficina'}",1850000000,165.0,165.0,,3,3,"{'id': '1', 'nombre': 'Bogotá D.C.'}","{'id': '102', 'nombre': 'Otros'}",CHICO NORTE,CHICO ALTO,0.0,PROMOTORES DE BIENES INMOBILIARIOS S.A.S,Usado,"{'lon': -74.05053, 'lat': 4.6793933}",https://www.metrocuadrado.com/inmueble/venta-oficina-bogota-chico-norte-3-banos-3-garajes/10457-M6557095,Entre 10 y 20 años,5,2026-06-05
11052-M5214284,"{'id': '3', 'nombre': 'Oficina'}",2900000000,247.0,247.0,,5,4,"{'id': '1', 'nombre': 'Bogotá D.C.'}","{'id': '102', 'nombre': 'Otros'}",,PORCIUNCULA,4500000.0,COMERCIALIZADORA DE BIENESYSERVICIOS INMOBILIARIOS,Usado,"{'lon': 0, 'lat': 0}",https://www.metrocuadrado.com/inmueble/venta-oficina-bogota-5-banos-4-garajes/11052-M5214284,Entre 10 y 20 años,5,2026-06-05
412-M5718399,"{'id': '3', 'nombre': 'Oficina'}",1450000000,460.0,460.0,,5,0,"{'id': '1', 'nombre': 'Bogotá D.C.'}","{'id': '102', 'nombre': 'Otros'}",,CENTRO INTERNACIONAL,0.0,PROPIEDADES DE ELITE INMOBILIARIA SAS,Usado,"{'lon': 0, 'lat': 0}",https://www.metrocuadrado.com/inmueble/venta-oficina-bogota-5-banos/412-M5718399,Entre 5 y 10 años,3,2026-06-05
