propertyId,propertyType,salePrice,area,areac,rooms,bathrooms,garages,city,zone,neighborhood,commonNeighborhood,adminPrice,companyName,propertyState,coordinates,link,builtTime,stratum,Extraction Date
20205-M6661575,"{'id': '3', 'nombre': 'Oficina'}",500000000,44.0,44.0,,1,1,"{'id': '1', 'nombre': 'Bogotá D.C.'}",,CIUDAD SALITRE,Ciudad Salitre,,CENTURY 21 MAXIBIENES,Usado,"{'lon': -74.10617, 'lat': 4.656436}",https://www.metrocuadrado.com/inmueble/venta-oficina-bogota-ciudad-salitre-1-banos-1-garajes/20205-M6661575,Entre 10 y 20 años,4,2026-06-06
17153-M6348756,"{'id': '3', 'nombre': 'Oficina'}",900000000,113.6,113.6,,2,2,"{'id': '1', 'nombre': 'Bogotá D.C.'}","{'id': '2', 'nombre': 'Chapinero'}",,LA PORCINCULA,1321000.0,PAULINA HERNANDEZ,Usado,"{'lon': -74.058815, 'lat': 4.656863}",https://www.metrocuadrado.com/inmueble/venta-oficina-bogota-2-banos-2-garajes/17153-M6348756,Más de 20 años,4,2026-06-06
4761-M3215508,"{'id': '3', 'nombre': 'Oficina'}",386500000,53.55,53.55,,1,0,"{'id': '1', 'nombre': 'Bogotá D.C.'}","{'id': '1', 'nombre': 'Norte'}",SANTA BARBARA OCCIDENTAL,SANTA BARBARA CENTRAL,500000.0,NOVAXIM LATAM SAS,Usado,"{'lon': -74.04462, 'lat': 4.7044644}",https://www.metrocuadrado.com/inmueble/venta-oficina-bogota-santa-barbara-occidental-1-banos/4761-M3215508,Entre 10 y 20 años,5,2026-06-06
MC6538839,"{'id': '3', 'nombre': 'Oficina'}",270000000,40.0,40.0,,2,0,"{'id': '1', 'nombre': 'Bogotá D.C.'}","{'id': '5', 'nombre': 'Centro'}",SAN DIEGO,PARQUE CENTRAL BAVARIA   Centro Internacional,,,Usado,"{'lon': -74.07142, 'lat': 4.6148753}",https://www.metrocuadrado.com/inmueble/venta-oficina-bogota-san-diego-2-banos/MC6538839,Entre 10 y 20 años,4,2026-06-06
412-M5294589,"{'id': '3', 'nombre': 'Oficina'}",680000000,105.0,105.0,,1,1,"{'id': '1', 'nombre': 'Bogotá D.C.'}","{'id': '1', 'nombre': 'Norte'}",CHICO NORTE ET  II,CHAPINERO,0.0,PROPIEDADES DE ELITE INMOBILIARIA SAS,Usado,"{'lon': -74.048416, 'lat': 4.6833715}",https://www.metrocuadrado.com/inmueble/venta-oficina-bogota-chico-norte-et.-ii-1-banos-1-garajes/412-M5294589,Entre 5 y 10 años,5,2026-06-06
14271-M5802074,"{'id': '3', 'nombre': 'Oficina'}",4175000000,700.0,659.0,,5,4,"{'id': '1', 'nombre': 'Bogotá D.C.'}","{'id': '3', 'nombre': 'Noroccidente'}",TIERRA LINDA,TIERRA LINDA,300000.0,El Olimpo Inmobiliaria,Usado,"{'lon': -74.05704, 'lat': 4.7106895}",https://www.metrocuadrado.com/inmueble/venta-oficina-bogota-tierra-linda-5-banos-4-garajes/14271-M5802074,Más de 20 años,4,2026-06-06
5161-M6735828,"{'id': '3', 'nombre': 'Oficina'}",2250000000,540.0,540.0,,5,3,"{'id': '1', 'nombre': 'Bogotá D.C.'}","{'id': '2', 'nombre': 'Chapinero'}",SAGRADO CORAZON,CENTRO INTERNACIONAL ,5600000.0,Grupo Terranova,Usado,"{'lon': -74.067154, 'lat': 4.6228275}",https://www.metrocuadrado.com/inmueble/venta-oficina-bogota-sagrado-corazon-5-banos-3-garajes/5161-M6735828,Entre 10 y 20 años,4,2026-06-06
21889-M6649220,"{'id': '3', 'nombre': 'Oficina'}",310000000,48.0,48.0,,2,1,"{'id': '1', 'nombre': 'Bogotá D.C.'}","{'id': '1', 'nombre': 'Norte'}",SANTA BARBARA OCCIDENTAL,SANTA BARBARA,932400.0,TRADE INMOBILIARIA,Usado,"{'lon': -74.04357, 'lat': 4.6997495}",https://www.metrocuadrado.com/inmueble/venta-oficina-bogota-santa-barbara-occidental-2-banos-1-garajes/21889-M6649220,Entre 10 y 20 años,5,2026-06-06
20621-M6013224,"{'id': '3', 'nombre': 'Oficina'}",2919619428,439.53,413.66,,2,4,"{'id': '1', 'nombre': 'Bogotá D.C.'}","{'id': '2', 'nombre': 'Chapinero'}",QUINTA CAMACHO,ROSALES QUINTA CAMACHO,6818012.0,CREDIBANCO SA,Usado,"{'lon': -74.056656, 'lat': 4.653094}",https://www.metrocuadrado.com/inmueble/venta-oficina-bogota-quinta-camacho-2-banos-4-garajes/20621-M6013224,Entre 10 y 20 años,4,2026-06-06
22202-M6552554,"{'id': '3', 'nombre': 'Oficina'}",1100000000,115.0,115.0,,3,1,"{'id': '1', 'nombre': 'Bogotá D.C.'}","{'id': '3', 'nombre': 'Noroccidente'}",ESTORIL,BARRIOS UNIDOS,2000000.0,Arriendo Ya,Usado,"{'lon': -74.06154, 'lat': 4.6883674}",https://www.metrocuadrado.com/inmueble/venta-oficina-bogota-estoril-3-banos-1-garajes/22202-M6552554,Entre 5 y 10 años,5,2026-06-06
11052-M5214284,"{'id': '3', 'nombre': 'Oficina'}",2900000000,247.0,247.0,,5,4,"{'id': '1', 'nombre': 'Bogotá D.C.'}","{'id': '102', 'nombre': 'Otros'}",,PORCIUNCULA,4500000.0,COMERCIALIZADORA DE BIENESYSERVICIOS INMOBILIARIOS,Usado,"{'lon': 0, 'lat': 0}",https://www.metrocuadrado.com/inmueble/venta-oficina-bogota-5-banos-4-garajes/11052-M5214284,Entre 10 y 20 años,5,2026-06-06
5340-M4839686,"{'id': '3', 'nombre': 'Oficina'}",1600000000,145.0,160.0,,2,4,"{'id': '1', 'nombre': 'Bogotá D.C.'}",,PUENTE LARGO,Puente Largo,,Bon Habitat SAS,Usado,"{'lon': -74.05549, 'lat': 4.6937566}",https://www.metrocuadrado.com/inmueble/venta-oficina-bogota-puente-largo-2-banos-4-garajes/5340-M4839686,Entre 10 y 20 años,7,2026-06-06
412-M5718399,"{'id': '3', 'nombre': 'Oficina'}",1450000000,460.0,460.0,,5,0,"{'id': '1', 'nombre': 'Bogotá D.C.'}","{'id': '102', 'nombre': 'Otros'}",,CENTRO INTERNACIONAL,0.0,PROPIEDADES DE ELITE INMOBILIARIA SAS,Usado,"{'lon': 0, 'lat': 0}",https://www.metrocuadrado.com/inmueble/venta-oficina-bogota-5-banos/412-M5718399,Entre 5 y 10 años,3,2026-06-06
14271-M5340222,"{'id': '3', 'nombre': 'Oficina'}",502000000,54.0,54.0,,4,1,"{'id': '1', 'nombre': 'Bogotá D.C.'}","{'id': '5', 'nombre': 'Centro'}",LAS NIEVES,CENTRO LAS NIEVES,600000.0,El Olimpo Inmobiliaria,Usado,"{'lon': -74.070305, 'lat': 4.604726}",https://www.metrocuadrado.com/inmueble/venta-oficina-bogota-las-nieves-4-banos-1-garajes/14271-M5340222,Entre 10 y 20 años,3,2026-06-06
10457-M6154493,"{'id': '3', 'nombre': 'Oficina'}",2099999999,146.0,146.0,,4,4,"{'id': '1', 'nombre': 'Bogotá D.C.'}","{'id': '1', 'nombre': 'Norte'}",CHICO NORTE ET III,SANTA BARBARA CENTRAL,0.0,PROMOTORES DE BIENES INMOBILIARIOS S.A.S,Usado,"{'lon': -74.0491, 'lat': 4.6822505}",https://www.metrocuadrado.com/inmueble/venta-oficina-bogota-chico-norte-et-iii-4-banos-4-garajes/10457-M6154493,Entre 10 y 20 años,5,2026-06-06
20234-M5792543,"{'id': '3', 'nombre': 'Oficina'}",1100000000,118.0,118.0,,1,2,"{'id': '1', 'nombre': 'Bogotá D.C.'}",,PEPE SIERRA,Pepe Sierra,890000.0,MORE PLUS SAS,Usado,"{'lon': -74.055275, 'lat': 4.6944623}",https://www.metrocuadrado.com/inmueble/venta-oficina-bogota-pepe-sierra-1-banos-2-garajes/20234-M5792543,Más de 20 años,6,2026-06-06
