propertyId,propertyType,salePrice,area,areac,rooms,bathrooms,garages,city,zone,neighborhood,commonNeighborhood,adminPrice,companyName,propertyState,coordinates,link,builtTime,stratum,Extraction Date
4630-M3150817,"{'id': '3', 'nombre': 'Oficina'}",2584000000,276.0,276.0,,2,4,"{'id': '1', 'nombre': 'Bogotá D.C.'}",,CHICO,Chico,3700000.0,PROPIEDADES DE COLOMBIA SAS,Usado,"{'lon': -74.04351, 'lat': 4.6809464}",https://www.metrocuadrado.com/inmueble/venta-oficina-bogota-chico-2-banos-4-garajes/4630-M3150817,Entre 5 y 10 años,6,2026-04-02
13878-M6321479,"{'id': '3', 'nombre': 'Oficina'}",290000000,34.0,34.0,,1,1,"{'id': '1', 'nombre': 'Bogotá D.C.'}","{'id': '1', 'nombre': 'Norte'}",CHICO,CHICO PARQUE DE LA 93,660000.0,SFHERA INMOBILIARIA SAS,Usado,"{'lon': -74.051544, 'lat': 4.6728454}",https://www.metrocuadrado.com/inmueble/venta-oficina-bogota-chico-1-banos-1-garajes/13878-M6321479,Más de 20 años,6,2026-04-02
4761-M3215508,"{'id': '3', 'nombre': 'Oficina'}",386500000,53.55,53.55,,1,0,"{'id': '1', 'nombre': 'Bogotá D.C.'}","{'id': '1', 'nombre': 'Norte'}",SANTA BARBARA OCCIDENTAL,SANTA BARBARA CENTRAL,500000.0,NOVAXIM LATAM SAS,Usado,"{'lon': -74.04462, 'lat': 4.7044644}",https://www.metrocuadrado.com/inmueble/venta-oficina-bogota-santa-barbara-occidental-1-banos/4761-M3215508,Entre 10 y 20 años,5,2026-04-02
MC5769126,"{'id': '3', 'nombre': 'Oficina'}",450000000,72.0,77.3,,2,1,"{'id': '1', 'nombre': 'Bogotá D.C.'}","{'id': '1', 'nombre': 'Norte'}",SANTA BARBARA ORIENTAL,SANTA BARBARA ORIENTAL   Santa Bárbara,1200000.0,,Usado,"{'lon': -74.03199, 'lat': 4.6986694}",https://www.metrocuadrado.com/inmueble/venta-oficina-bogota-santa-barbara-oriental-2-banos-1-garajes/MC5769126,Entre 10 y 20 años,5,2026-04-02
MC2849645,"{'id': '3', 'nombre': 'Oficina'}",550000000,97.0,100.0,,3,2,"{'id': '1', 'nombre': 'Bogotá D.C.'}","{'id': '2', 'nombre': 'Chapinero'}",SEARS,Galerias,1100000.0,,Usado,"{'lon': -74.072105, 'lat': 4.6424704}",https://www.metrocuadrado.com/inmueble/venta-oficina-bogota-sears-3-banos-2-garajes/MC2849645,Más de 20 años,3,2026-04-02
MC6538839,"{'id': '3', 'nombre': 'Oficina'}",270000000,40.0,40.0,,2,0,"{'id': '1', 'nombre': 'Bogotá D.C.'}","{'id': '5', 'nombre': 'Centro'}",SAN DIEGO,PARQUE CENTRAL BAVARIA   Centro Internacional,,,Usado,"{'lon': -74.07142, 'lat': 4.6148753}",https://www.metrocuadrado.com/inmueble/venta-oficina-bogota-san-diego-2-banos/MC6538839,Entre 10 y 20 años,4,2026-04-02
11295-M5699373,"{'id': '3', 'nombre': 'Oficina'}",1450516329,158.0,158.0,,1,2,"{'id': '1', 'nombre': 'Bogotá D.C.'}","{'id': '6', 'nombre': 'Sur'}",SAN JORGE SUR,SANTA BARBARA,100.0,NC BUSINESS,Usado,"{'lon': -74.12069, 'lat': 4.571082}",https://www.metrocuadrado.com/inmueble/venta-oficina-bogota-san-jorge-sur-1-banos-2-garajes/11295-M5699373,Entre 0 y 5 años,4,2026-04-02
11295-M5488046,"{'id': '3', 'nombre': 'Oficina'}",695000000,98.0,98.0,,1,1,"{'id': '1', 'nombre': 'Bogotá D.C.'}","{'id': '1', 'nombre': 'Norte'}",CHICO NORTE,MUSEO DEL CHICO,0.0,NC BUSINESS,Usado,"{'lon': -74.043335, 'lat': 4.6729674}",https://www.metrocuadrado.com/inmueble/venta-oficina-bogota-chico-norte-1-banos-1-garajes/11295-M5488046,Entre 0 y 5 años,3,2026-04-02
5044-M5839033,"{'id': '3', 'nombre': 'Oficina'}",1380000000,570.0,570.0,,2,0,"{'id': '1', 'nombre': 'Bogotá D.C.'}",,NA,Chapinero,1130000.0,Martha Broker,Usado,"{'lon': 0, 'lat': 0}",https://www.metrocuadrado.com/inmueble/venta-oficina-bogota-na-2-banos/5044-M5839033,Más de 20 años,4,2026-04-02
412-M5658145,"{'id': '3', 'nombre': 'Oficina'}",2200000000,181.0,181.0,,2,3,"{'id': '1', 'nombre': 'Bogotá D.C.'}","{'id': '102', 'nombre': 'Otros'}",,SANTA BARBARA ORIENTAL,1972100.0,PROPIEDADES DE ELITE INMOBILIARIA SAS,Usado,"{'lon': 0, 'lat': 0}",https://www.metrocuadrado.com/inmueble/venta-oficina-bogota-2-banos-3-garajes/412-M5658145,Entre 0 y 5 años,4,2026-04-02
5161-M5604603,"{'id': '3', 'nombre': 'Oficina'}",21000000000,1500.0,1500.0,,5,4,"{'id': '1', 'nombre': 'Bogotá D.C.'}","{'id': '1', 'nombre': 'Norte'}",SANTA ANA OCCIDENTAL,CHICO,0.0,Grupo Terranova,Usado,"{'lon': -74.035126, 'lat': 4.6880994}",https://www.metrocuadrado.com/inmueble/venta-oficina-bogota-santa-ana-occidental-5-banos-4-garajes/5161-M5604603,Entre 0 y 5 años,7,2026-04-02
2993-M3973227,"{'id': '3', 'nombre': 'Oficina'}",1800000000,390.0,390.0,,4,4,"{'id': '1', 'nombre': 'Bogotá D.C.'}","{'id': '3', 'nombre': 'Noroccidente'}",MONACO,LA ALHAMBRA MONACO,100000.0,Alexandra jimenez velosa,Usado,"{'lon': -74.05785, 'lat': 4.6993427}",https://www.metrocuadrado.com/inmueble/venta-oficina-bogota-monaco-4-banos-4-garajes/2993-M3973227,Remodelado,5,2026-04-02
5161-M5630092,"{'id': '3', 'nombre': 'Oficina'}",181170000000,16470.0,16470.0,,5,4,"{'id': '1', 'nombre': 'Bogotá D.C.'}","{'id': '3', 'nombre': 'Noroccidente'}",MINUTO DE DIOS,PONTEVEDRA,0.0,Grupo Terranova,Usado,"{'lon': -74.08638, 'lat': 4.6964445}",https://www.metrocuadrado.com/inmueble/venta-oficina-bogota-minuto-de-dios-5-banos-4-garajes/5161-M5630092,Entre 0 y 5 años,7,2026-04-02
3437-M5598030,"{'id': '3', 'nombre': 'Oficina'}",4090700000,268.0,268.0,,5,4,"{'id': '1', 'nombre': 'Bogotá D.C.'}","{'id': '1', 'nombre': 'Norte'}",EL NOGAL,NOGAL,3268170.0,POLANIA INMOBILIARIA,Usado,"{'lon': -74.051926, 'lat': 4.6599627}",https://www.metrocuadrado.com/inmueble/venta-oficina-bogota-el-nogal-5-banos-4-garajes/3437-M5598030,Entre 5 y 10 años,6,2026-04-02
3437-M5598259,"{'id': '3', 'nombre': 'Oficina'}",4090710000,268.0,268.0,,5,4,"{'id': '1', 'nombre': 'Bogotá D.C.'}","{'id': '1', 'nombre': 'Norte'}",EL NOGAL,NOGAL ROSALES,3398670.0,POLANIA INMOBILIARIA,Usado,"{'lon': -74.051926, 'lat': 4.6599627}",https://www.metrocuadrado.com/inmueble/venta-oficina-bogota-el-nogal-5-banos-4-garajes/3437-M5598259,Entre 5 y 10 años,6,2026-04-02
21599-M6433055,"{'id': '3', 'nombre': 'Oficina'}",1310000000,248.0,248.0,,2,2,"{'id': '1', 'nombre': 'Bogotá D.C.'}","{'id': '5', 'nombre': 'Centro'}",LAS NIEVES,LAS NIEVES,3460000.0,MORAVIA BIENES RAICES,Usado,"{'lon': -74.07021, 'lat': 4.6104965}",https://www.metrocuadrado.com/inmueble/venta-oficina-bogota-las-nieves-2-banos-2-garajes/21599-M6433055,Más de 20 años,3,2026-04-02
