propertyId,propertyType,salePrice,area,areac,rooms,bathrooms,garages,city,zone,neighborhood,commonNeighborhood,adminPrice,companyName,propertyState,coordinates,link,builtTime,stratum,Extraction Date
4630-M3150817,"{'id': '3', 'nombre': 'Oficina'}",2584000000,276.0,276.0,,2,4,"{'id': '1', 'nombre': 'Bogotá D.C.'}",,CHICO,Chico,3700000.0,PROPIEDADES DE COLOMBIA SAS,Usado,"{'lon': -74.04351, 'lat': 4.6809464}",https://www.metrocuadrado.com/inmueble/venta-oficina-bogota-chico-2-banos-4-garajes/4630-M3150817,Entre 5 y 10 años,6,2026-06-12
17153-M6348756,"{'id': '3', 'nombre': 'Oficina'}",900000000,113.6,113.6,,2,2,"{'id': '1', 'nombre': 'Bogotá D.C.'}","{'id': '2', 'nombre': 'Chapinero'}",,LA PORCINCULA,1321000.0,PAULINA HERNANDEZ,Usado,"{'lon': -74.058815, 'lat': 4.656863}",https://www.metrocuadrado.com/inmueble/venta-oficina-bogota-2-banos-2-garajes/17153-M6348756,Más de 20 años,4,2026-06-12
15939-M5008741,"{'id': '3', 'nombre': 'Oficina'}",850000000,91.0,91.0,,1,2,"{'id': '1', 'nombre': 'Bogotá D.C.'}",,CHICO NORTE II,Chico Norte Ii,1250000.0,Inmobiliaria CBM77,Usado,"{'lon': -74.04522, 'lat': 4.68188}",https://www.metrocuadrado.com/inmueble/venta-oficina-bogota-chico-norte-ii-1-banos-2-garajes/15939-M5008741,Entre 5 y 10 años,5,2026-06-12
MC6538839,"{'id': '3', 'nombre': 'Oficina'}",270000000,40.0,40.0,,2,0,"{'id': '1', 'nombre': 'Bogotá D.C.'}","{'id': '5', 'nombre': 'Centro'}",SAN DIEGO,PARQUE CENTRAL BAVARIA   Centro Internacional,,,Usado,"{'lon': -74.07142, 'lat': 4.6148753}",https://www.metrocuadrado.com/inmueble/venta-oficina-bogota-san-diego-2-banos/MC6538839,Entre 10 y 20 años,4,2026-06-12
15939-M5008741,"{'id': '3', 'nombre': 'Oficina'}",850000000,91.0,91.0,,1,2,"{'id': '1', 'nombre': 'Bogotá D.C.'}",,CHICO NORTE II,Chico Norte Ii,1250000.0,Inmobiliaria CBM77,Usado,"{'lon': -74.04522, 'lat': 4.68188}",https://www.metrocuadrado.com/inmueble/venta-oficina-bogota-chico-norte-ii-1-banos-2-garajes/15939-M5008741,Entre 5 y 10 años,5,2026-06-12
MC5792289,"{'id': '3', 'nombre': 'Oficina'}",525000000,64.0,64.0,,1,2,"{'id': '1', 'nombre': 'Bogotá D.C.'}","{'id': '1', 'nombre': 'Norte'}",SANTA BARBARA OCCIDENTAL,SANTA BARBARA OCCIDENTAL   Chicó,561000.0,,Usado,"{'lon': -74.04958, 'lat': 4.6997323}",https://www.metrocuadrado.com/inmueble/venta-oficina-bogota-santa-barbara-occidental-1-banos-2-garajes/MC5792289,Más de 20 años,6,2026-06-12
17061-M6685927,"{'id': '3', 'nombre': 'Oficina'}",240000000,28.8,28.8,,1,1,"{'id': '1', 'nombre': 'Bogotá D.C.'}","{'id': '1', 'nombre': 'Norte'}",LAGO GAITAN,LAGO NOGAL,539800.0,NEXT SPACE,Usado,"{'lon': -74.0597, 'lat': 4.6665034}",https://www.metrocuadrado.com/inmueble/venta-oficina-bogota-lago-gaitan-1-banos-1-garajes/17061-M6685927,Entre 10 y 20 años,5,2026-06-12
21889-M6388194,"{'id': '3', 'nombre': 'Oficina'}",620000000,80.0,80.0,,5,1,"{'id': '1', 'nombre': 'Bogotá D.C.'}","{'id': '4', 'nombre': 'Occidental'}",PUERTA DE TEJA,MODELIA,1200000.0,TRADE INMOBILIARIA,Usado,"{'lon': -74.129456, 'lat': 4.6771083}",https://www.metrocuadrado.com/inmueble/venta-oficina-bogota-puerta-de-teja-5-banos-1-garajes/21889-M6388194,Entre 10 y 20 años,3,2026-06-12
21414-M6128166,"{'id': '3', 'nombre': 'Oficina'}",844000000,211.0,211.0,,2,2,"{'id': '1', 'nombre': 'Bogotá D.C.'}",,PARQUE NACIONAL,Parque Nacional,1982000.0,INDOOR DE  COLOMBIA S.A.S,Usado,"{'lon': -74.06702, 'lat': 4.622175}",https://www.metrocuadrado.com/inmueble/venta-oficina-bogota-parque-nacional-2-banos-2-garajes/21414-M6128166,Más de 20 años,7,2026-06-12
21889-M6649193,"{'id': '3', 'nombre': 'Oficina'}",399000000,57.0,57.0,,2,0,"{'id': '1', 'nombre': 'Bogotá D.C.'}","{'id': '3', 'nombre': 'Noroccidente'}",LA CASTELLANA,LA CASTELLANA,778827.0,TRADE INMOBILIARIA,Usado,"{'lon': -74.060196, 'lat': 4.6845555}",https://www.metrocuadrado.com/inmueble/venta-oficina-bogota-la-castellana-2-banos/21889-M6649193,Entre 10 y 20 años,5,2026-06-12
21889-M6660331,"{'id': '3', 'nombre': 'Oficina'}",950000000,100.0,100.0,,1,2,"{'id': '1', 'nombre': 'Bogotá D.C.'}","{'id': '4', 'nombre': 'Occidental'}",PUERTA DE TEJA,MODELIA,0.0,TRADE INMOBILIARIA,Usado,"{'lon': -74.129456, 'lat': 4.6771083}",https://www.metrocuadrado.com/inmueble/venta-oficina-bogota-puerta-de-teja-1-banos-2-garajes/21889-M6660331,Entre 5 y 10 años,4,2026-06-12
21889-M6649220,"{'id': '3', 'nombre': 'Oficina'}",310000000,48.0,48.0,,2,1,"{'id': '1', 'nombre': 'Bogotá D.C.'}","{'id': '1', 'nombre': 'Norte'}",SANTA BARBARA OCCIDENTAL,SANTA BARBARA,932400.0,TRADE INMOBILIARIA,Usado,"{'lon': -74.04357, 'lat': 4.6997495}",https://www.metrocuadrado.com/inmueble/venta-oficina-bogota-santa-barbara-occidental-2-banos-1-garajes/21889-M6649220,Entre 10 y 20 años,5,2026-06-12
21889-M6649168,"{'id': '3', 'nombre': 'Oficina'}",520000000,81.0,81.0,,1,1,"{'id': '1', 'nombre': 'Bogotá D.C.'}","{'id': '1', 'nombre': 'Norte'}",SANTA BARBARA CENTRAL,SANTA BARBARA,1690000.0,TRADE INMOBILIARIA,Usado,"{'lon': -74.03325, 'lat': 4.699567}",https://www.metrocuadrado.com/inmueble/venta-oficina-bogota-santa-barbara-central-1-banos-1-garajes/21889-M6649168,Entre 10 y 20 años,6,2026-06-12
20621-M6013141,"{'id': '3', 'nombre': 'Oficina'}",2998388120,733.81,160.2,,3,4,"{'id': '1', 'nombre': 'Bogotá D.C.'}","{'id': '2', 'nombre': 'Chapinero'}",QUINTA CAMACHO,QUINTA CAMACHO,12124300.0,CREDIBANCO SA,Usado,"{'lon': -74.056656, 'lat': 4.653094}",https://www.metrocuadrado.com/inmueble/venta-oficina-bogota-quinta-camacho-3-banos-4-garajes/20621-M6013141,Entre 10 y 20 años,4,2026-06-12
23063-M6743030,"{'id': '3', 'nombre': 'Oficina'}",850000000,105.0,105.0,,2,2,"{'id': '1', 'nombre': 'Bogotá D.C.'}","{'id': '1', 'nombre': 'Norte'}",EL RETIRO,ANTIGUO COUNTRY,1000000.0,GLORIA MARGARITA CAICEDO VARELA,Usado,"{'lon': -74.05569, 'lat': 4.668104}",https://www.metrocuadrado.com/inmueble/venta-oficina-bogota-el-retiro-2-banos-2-garajes/23063-M6743030,Más de 20 años,5,2026-06-12
