propertyId,propertyType,salePrice,area,areac,rooms,bathrooms,garages,city,zone,neighborhood,commonNeighborhood,adminPrice,companyName,propertyState,coordinates,link,builtTime,stratum,Extraction Date
4630-M3150817,"{'id': '3', 'nombre': 'Oficina'}",2550000000,276,276,,2,4,"{'id': '1', 'nombre': 'Bogotá D.C.'}","{'id': '1', 'nombre': 'Norte'}",CHICO NORTE ET  II,Chico,3700000.0,PROPIEDADES DE COLOMBIA SAS,Usado,"{'lon': -74.04351, 'lat': 4.6809464}",https://www.metrocuadrado.com/inmueble/venta-oficina-bogota-chico-norte-et.-ii-2-banos-4-garajes/4630-M3150817,Entre 5 y 10 años,6,2025-07-20
20383-M5838426,"{'id': '3', 'nombre': 'Oficina'}",2500000000,590,590,,5,4,"{'id': '1', 'nombre': 'Bogotá D.C.'}","{'id': '5', 'nombre': 'Centro'}",LA VERACRUZ,Las Nieves,6598107.0,LUIS F CAMACHO Y CIA SAS,Usado,"{'lon': -74.07401, 'lat': 4.60244}",https://www.metrocuadrado.com/inmueble/venta-oficina-bogota-la-veracruz-5-banos-4-garajes/20383-M5838426,Más de 20 años,3,2025-07-20
3284-M5819365,"{'id': '3', 'nombre': 'Oficina'}",2340000000,193,193,,0,3,"{'id': '1', 'nombre': 'Bogotá D.C.'}","{'id': '2', 'nombre': 'Chapinero'}",QUINTA CAMACHO,Quinta Camacho,0.0,3M GRUPO INMOBILIARIO SAS,Usado,"{'lon': -74.05577, 'lat': 4.654428}",https://www.metrocuadrado.com/inmueble/venta-oficina-bogota-quinta-camacho-3-garajes/3284-M5819365,Más de 20 años,6,2025-07-20
19277-M5613870,"{'id': '3', 'nombre': 'Oficina'}",480000000,127,127,,3,0,"{'id': '1', 'nombre': 'Bogotá D.C.'}","{'id': '5', 'nombre': 'Centro'}",LA CATEDRAL,LA CANDELARIA,1000000.0,FINCA RAIZ SOLANO POLANCO SAS,Usado,"{'lon': -74.073616, 'lat': 4.601292}",https://www.metrocuadrado.com/inmueble/venta-oficina-bogota-la-catedral-3-banos/19277-M5613870,Más de 20 años,4,2025-07-20
17265-M5200538,"{'id': '3', 'nombre': 'Oficina'}",24000000000,4211,4211,,,4,"{'id': '1', 'nombre': 'Bogotá D.C.'}","{'id': '1', 'nombre': 'Norte'}",CHICO NORTE,Chico Norte Ii,,DIAGONAL 2 SAS,Usado,"{'lon': -74.05073, 'lat': 4.676196}",https://www.metrocuadrado.com/inmueble/venta-oficina-bogota-chico-norte-4-garajes/17265-M5200538,Entre 10 y 20 años,3,2025-07-20
