propertyId,propertyType,salePrice,area,areac,rooms,bathrooms,garages,city,zone,neighborhood,commonNeighborhood,adminPrice,companyName,propertyState,coordinates,link,builtTime,stratum,Extraction Date
4630-M3150817,"{'id': '3', 'nombre': 'Oficina'}",2584000000,276.0,276.0,,2,4,"{'id': '1', 'nombre': 'Bogotá D.C.'}",,CHICO,Chico,3700000,PROPIEDADES DE COLOMBIA SAS,Usado,"{'lon': -74.04351, 'lat': 4.6809464}",https://www.metrocuadrado.com/inmueble/venta-oficina-bogota-chico-2-banos-4-garajes/4630-M3150817,Entre 5 y 10 años,6,2026-03-28
290-M6395513,"{'id': '3', 'nombre': 'Oficina'}",135000000,50.0,50.0,,2,0,"{'id': '1', 'nombre': 'Bogotá D.C.'}","{'id': '5', 'nombre': 'Centro'}",LA CAPUCHINA,EL CENTRO,430000,INSIGNIA ALIANZA INMOBILIARIA SAS,Usado,"{'lon': -74.07596, 'lat': 4.6038766}",https://www.metrocuadrado.com/inmueble/venta-oficina-bogota-la-capuchina-2-banos/290-M6395513,Más de 20 años,3,2026-03-28
2564-M6178448,"{'id': '3', 'nombre': 'Oficina'}",390000000,75.0,75.0,,2,1,"{'id': '1', 'nombre': 'Bogotá D.C.'}","{'id': '2', 'nombre': 'Chapinero'}",QUINTA CAMACHO,QUINTA CAMACHO,1250000,SILVA SERRANO CONSULTORES,Usado,"{'lon': -74.057465, 'lat': 4.6555357}",https://www.metrocuadrado.com/inmueble/venta-oficina-bogota-quinta-camacho-2-banos-1-garajes/2564-M6178448,Más de 20 años,4,2026-03-28
MC5769126,"{'id': '3', 'nombre': 'Oficina'}",450000000,72.0,77.3,,2,1,"{'id': '1', 'nombre': 'Bogotá D.C.'}","{'id': '1', 'nombre': 'Norte'}",SANTA BARBARA ORIENTAL,SANTA BARBARA ORIENTAL   Santa Bárbara,1200000,,Usado,"{'lon': -74.03199, 'lat': 4.6986694}",https://www.metrocuadrado.com/inmueble/venta-oficina-bogota-santa-barbara-oriental-2-banos-1-garajes/MC5769126,Entre 10 y 20 años,5,2026-03-28
20188-M5781335,"{'id': '3', 'nombre': 'Oficina'}",738000000,83.15,83.15,,1,2,"{'id': '1', 'nombre': 'Bogotá D.C.'}","{'id': '1', 'nombre': 'Norte'}",EL ESPARTILLAL   EDIF CENTRO DE NEGOCIOS 77,LAGO  GAITAN,1200000,Mayeinmobiliaria,Usado,"{'lon': -74.058014, 'lat': 4.662944}",https://www.metrocuadrado.com/inmueble/venta-oficina-bogota-el-espartillal-edif-centro-de-negocios-77-1-banos-2-garajes/20188-M5781335,Entre 10 y 20 años,5,2026-03-28
412-M5751427,"{'id': '3', 'nombre': 'Oficina'}",950000000,404.0,404.0,,5,4,"{'id': '1', 'nombre': 'Bogotá D.C.'}","{'id': '2', 'nombre': 'Chapinero'}",SUCRE,SUCRE,0,PROPIEDADES DE ELITE INMOBILIARIA SAS,Usado,"{'lon': -74.06722, 'lat': 4.628468}",https://www.metrocuadrado.com/inmueble/venta-oficina-bogota-sucre-5-banos-4-garajes/412-M5751427,Remodelado,4,2026-03-28
3340-M5637046,"{'id': '3', 'nombre': 'Oficina'}",1190000000,160.0,220.0,,3,3,"{'id': '1', 'nombre': 'Bogotá D.C.'}","{'id': '3', 'nombre': 'Noroccidente'}",MONACO,EL BATAN,0,Multi Brokers SAS,Usado,"{'lon': -74.06146, 'lat': 4.701142}",https://www.metrocuadrado.com/inmueble/venta-oficina-bogota-monaco-3-banos-3-garajes/3340-M5637046,Entre 10 y 20 años,5,2026-03-28
20234-M5792543,"{'id': '3', 'nombre': 'Oficina'}",1100000000,118.0,118.0,,1,2,"{'id': '1', 'nombre': 'Bogotá D.C.'}",,PEPE SIERRA,Pepe Sierra,890000,MORE PLUS SAS,Usado,"{'lon': -74.055275, 'lat': 4.6944623}",https://www.metrocuadrado.com/inmueble/venta-oficina-bogota-pepe-sierra-1-banos-2-garajes/20234-M5792543,Más de 20 años,6,2026-03-28
897-M5017181,"{'id': '3', 'nombre': 'Oficina'}",3743241880,1011.0,1011.0,,1,4,"{'id': '1', 'nombre': 'Bogotá D.C.'}",,CENTRO INTERNACIONAL,Centro Internacional,5866657,L2L BIENES RAÍCES SAS,Usado,"{'lon': -74.07127, 'lat': 4.61578}",https://www.metrocuadrado.com/inmueble/venta-oficina-bogota-centro-internacional-1-banos-4-garajes/897-M5017181,Más de 20 años,4,2026-03-28
21599-M6433055,"{'id': '3', 'nombre': 'Oficina'}",1310000000,248.0,248.0,,2,2,"{'id': '1', 'nombre': 'Bogotá D.C.'}","{'id': '5', 'nombre': 'Centro'}",LAS NIEVES,LAS NIEVES,3460000,MORAVIA BIENES RAICES,Usado,"{'lon': -74.07021, 'lat': 4.6104965}",https://www.metrocuadrado.com/inmueble/venta-oficina-bogota-las-nieves-2-banos-2-garajes/21599-M6433055,Más de 20 años,3,2026-03-28
10457-M6523937,"{'id': '3', 'nombre': 'Oficina'}",2199000000,337.0,337.0,,4,4,"{'id': '1', 'nombre': 'Bogotá D.C.'}","{'id': '102', 'nombre': 'Otros'}",CHICO NORTE,EL NOGAL ESPARTILLAL,4556000,PROMOTORES DE BIENES INMOBILIARIOS S.A.S,Usado,"{'lon': -74.04675, 'lat': 4.6760654}",https://www.metrocuadrado.com/inmueble/venta-oficina-bogota-chico-norte-4-banos-4-garajes/10457-M6523937,Más de 20 años,4,2026-03-28
412-M5748305,"{'id': '3', 'nombre': 'Oficina'}",1650000000,550.0,550.0,,5,4,"{'id': '1', 'nombre': 'Bogotá D.C.'}","{'id': '102', 'nombre': 'Otros'}",,modelia,0,PROPIEDADES DE ELITE INMOBILIARIA SAS,Usado,"{'lon': 0, 'lat': 0}",https://www.metrocuadrado.com/inmueble/venta-oficina-bogota-5-banos-4-garajes/412-M5748305,Entre 5 y 10 años,5,2026-03-28
5044-M6519029,"{'id': '3', 'nombre': 'Oficina'}",1380000000,570.0,570.0,,2,0,"{'id': '1', 'nombre': 'Bogotá D.C.'}","{'id': '1', 'nombre': 'Norte'}",NA,Chapinero,1130000,Martha Broker,Usado,"{'lon': -74.05345, 'lat': 4.6661277}",https://www.metrocuadrado.com/inmueble/venta-oficina-bogota-na-2-banos/5044-M6519029,Más de 20 años,4,2026-03-28
5044-M5839033,"{'id': '3', 'nombre': 'Oficina'}",1380000000,570.0,570.0,,2,0,"{'id': '1', 'nombre': 'Bogotá D.C.'}",,NA,Chapinero,1130000,Martha Broker,Usado,"{'lon': 0, 'lat': 0}",https://www.metrocuadrado.com/inmueble/venta-oficina-bogota-na-2-banos/5044-M5839033,Más de 20 años,4,2026-03-28
14-M4779613,"{'id': '3', 'nombre': 'Oficina'}",2257500000,215.0,215.0,,1,4,"{'id': '1', 'nombre': 'Bogotá D.C.'}","{'id': '4', 'nombre': 'Occidental'}",LA ESPERANZA NORTE,Ciudad Salitre Occidente,2494183,Jimenez Nassar u0026 Asociados ltda,Usado,"{'lon': -74.10732, 'lat': 4.6582513}",https://www.metrocuadrado.com/inmueble/venta-oficina-bogota-la-esperanza-norte-1-banos-4-garajes/14-M4779613,Entre 10 y 20 años,5,2026-03-28
20837-M6524842,"{'id': '3', 'nombre': 'Oficina'}",2000000000,505.0,505.0,,2,3,"{'id': '1', 'nombre': 'Bogotá D.C.'}","{'id': '2', 'nombre': 'Chapinero'}",SAGRADO CORAZON,La Merced,4997300,IKIGAI ESPACIOS SAS,Usado,"{'lon': -74.06698, 'lat': 4.6226144}",https://www.metrocuadrado.com/inmueble/venta-oficina-bogota-sagrado-corazon-2-banos-3-garajes/20837-M6524842,Más de 20 años,4,2026-03-28
