propertyId,propertyType,salePrice,area,areac,rooms,bathrooms,garages,city,zone,neighborhood,commonNeighborhood,adminPrice,companyName,propertyState,coordinates,link,builtTime,stratum,Extraction Date
11052-M6734310,"{'id': '3', 'nombre': 'Oficina'}",1450000000,118.0,118.0,,2,3,"{'id': '1', 'nombre': 'Bogotá D.C.'}","{'id': '6', 'nombre': 'Sur'}",SANTA BARBARA ORIENTAL,SANTA BARBARA CENTRAL,0.0,COMERCIALIZADORA DE BIENESYSERVICIOS INMOBILIARIOS,Usado,"{'lon': -74.03222, 'lat': 4.6987534}",https://www.metrocuadrado.com/inmueble/venta-oficina-bogota-santa-barbara-oriental-2-banos-3-garajes/11052-M6734310,Remodelado,1,2026-06-28
13016-M6140970,"{'id': '3', 'nombre': 'Oficina'}",1250000000,177.0,177.0,,2,2,"{'id': '1', 'nombre': 'Bogotá D.C.'}","{'id': '3', 'nombre': 'Noroccidente'}",ESTORIL,PASADENA,2155000.0,ZEN Bienes Raíces,Usado,"{'lon': -74.0616, 'lat': 4.688862}",https://www.metrocuadrado.com/inmueble/venta-oficina-bogota-estoril-2-banos-2-garajes/13016-M6140970,Entre 5 y 10 años,5,2026-06-28
15939-M6033995,"{'id': '3', 'nombre': 'Oficina'}",1749000000,165.43,165.43,,2,3,"{'id': '1', 'nombre': 'Bogotá D.C.'}",,CHICO NORTE,Chico Norte,2900000.0,Inmobiliaria CBM77,Usado,"{'lon': -74.04297, 'lat': 4.68062}",https://www.metrocuadrado.com/inmueble/venta-oficina-bogota-chico-norte-2-banos-3-garajes/15939-M6033995,Entre 10 y 20 años,6,2026-06-28
MC5994898,"{'id': '3', 'nombre': 'Oficina'}",420000000,55.0,55.0,,2,2,"{'id': '1', 'nombre': 'Bogotá D.C.'}","{'id': '1', 'nombre': 'Norte'}",CHICO NORTE,CHICO NORTE   Chicó,879000.0,,Usado,"{'lon': -74.048225, 'lat': 4.6792607}",https://www.metrocuadrado.com/inmueble/venta-oficina-bogota-chico-norte-2-banos-2-garajes/MC5994898,Remodelado,6,2026-06-28
22622-M6600480,"{'id': '3', 'nombre': 'Oficina'}",578000000,103.0,103.0,,2,0,"{'id': '1', 'nombre': 'Bogotá D.C.'}","{'id': '5', 'nombre': 'Centro'}",SAN MARTIN,CENTRO INTERNACIONAL,1100000.0,Nexus Grupo Inmobiliario ,Usado,"{'lon': -74.0678, 'lat': 4.6167884}",https://www.metrocuadrado.com/inmueble/venta-oficina-bogota-san-martin-2-banos/22622-M6600480,Más de 20 años,3,2026-06-28
MC6538839,"{'id': '3', 'nombre': 'Oficina'}",270000000,40.0,40.0,,2,0,"{'id': '1', 'nombre': 'Bogotá D.C.'}","{'id': '5', 'nombre': 'Centro'}",SAN DIEGO,PARQUE CENTRAL BAVARIA   Centro Internacional,,,Usado,"{'lon': -74.07142, 'lat': 4.6148753}",https://www.metrocuadrado.com/inmueble/venta-oficina-bogota-san-diego-2-banos/MC6538839,Entre 10 y 20 años,4,2026-06-28
MC6805418,"{'id': '3', 'nombre': 'Oficina'}",329000000,77.0,79.6,,2,0,"{'id': '1', 'nombre': 'Bogotá D.C.'}","{'id': '2', 'nombre': 'Chapinero'}",MARLY,CHAPINERO   Zona Urbana,,,Usado,"{'lon': -74.06622, 'lat': 4.6322436}",https://www.metrocuadrado.com/inmueble/venta-oficina-bogota-marly-2-banos/MC6805418,Más de 20 años,4,2026-06-28
MC3777936,"{'id': '3', 'nombre': 'Oficina'}",620000000,73.0,73.0,,1,1,"{'id': '1', 'nombre': 'Bogotá D.C.'}","{'id': '4', 'nombre': 'Occidental'}",QUINTA PAREDES,QUINTA PAREDES   Salitre Modelia,700000.0,,Usado,"{'lon': -74.094734, 'lat': 4.635184}",https://www.metrocuadrado.com/inmueble/venta-oficina-bogota-quinta-paredes-1-banos-1-garajes/MC3777936,Entre 5 y 10 años,4,2026-06-28
MC5792289,"{'id': '3', 'nombre': 'Oficina'}",495000000,64.0,64.0,,1,2,"{'id': '1', 'nombre': 'Bogotá D.C.'}","{'id': '1', 'nombre': 'Norte'}",SANTA BARBARA OCCIDENTAL,SANTA BARBARA OCCIDENTAL   Chicó,561000.0,,Usado,"{'lon': -74.04958, 'lat': 4.6997323}",https://www.metrocuadrado.com/inmueble/venta-oficina-bogota-santa-barbara-occidental-1-banos-2-garajes/MC5792289,Más de 20 años,6,2026-06-28
3437-M5598030,"{'id': '3', 'nombre': 'Oficina'}",4090700000,268.0,268.0,,5,4,"{'id': '1', 'nombre': 'Bogotá D.C.'}","{'id': '1', 'nombre': 'Norte'}",EL NOGAL,NOGAL,3268170.0,POLANIA INMOBILIARIA,Usado,"{'lon': -74.051926, 'lat': 4.6599627}",https://www.metrocuadrado.com/inmueble/venta-oficina-bogota-el-nogal-5-banos-4-garajes/3437-M5598030,Entre 5 y 10 años,6,2026-06-28
412-M5758747,"{'id': '3', 'nombre': 'Oficina'}",950000000,404.0,404.0,,5,4,"{'id': '1', 'nombre': 'Bogotá D.C.'}","{'id': '2', 'nombre': 'Chapinero'}",SUCRE,SUCRE,4700000.0,PROPIEDADES DE ELITE INMOBILIARIA SAS,Usado,"{'lon': -74.06722, 'lat': 4.628468}",https://www.metrocuadrado.com/inmueble/venta-oficina-bogota-sucre-5-banos-4-garajes/412-M5758747,Entre 5 y 10 años,4,2026-06-28
14383-M5117664,"{'id': '3', 'nombre': 'Oficina'}",1500000000,150.0,150.0,,1,3,"{'id': '1', 'nombre': 'Bogotá D.C.'}","{'id': '1', 'nombre': 'Norte'}",CHICO NORTE ET  II,PARQUE EL CHICO,1622330.0,CAROLINA ARIZA BROKER INMOBILIARIA,Usado,"{'lon': -74.04294, 'lat': 4.6806917}",https://www.metrocuadrado.com/inmueble/venta-oficina-bogota-chico-norte-et.-ii-1-banos-3-garajes/14383-M5117664,Entre 5 y 10 años,6,2026-06-28
412-M5755402,"{'id': '3', 'nombre': 'Oficina'}",3633000000,627.0,627.0,,1,4,"{'id': '1', 'nombre': 'Bogotá D.C.'}","{'id': '102', 'nombre': 'Otros'}",,LA PORCINCULA,7509000.0,PROPIEDADES DE ELITE INMOBILIARIA SAS,Usado,"{'lon': 0, 'lat': 0}",https://www.metrocuadrado.com/inmueble/venta-oficina-bogota-1-banos-4-garajes/412-M5755402,Entre 10 y 20 años,3,2026-06-28
2993-M3973227,"{'id': '3', 'nombre': 'Oficina'}",1800000000,390.0,390.0,,4,4,"{'id': '1', 'nombre': 'Bogotá D.C.'}","{'id': '3', 'nombre': 'Noroccidente'}",MONACO,LA ALHAMBRA MONACO,100000.0,Alexandra jimenez velosa,Usado,"{'lon': -74.05785, 'lat': 4.6993427}",https://www.metrocuadrado.com/inmueble/venta-oficina-bogota-monaco-4-banos-4-garajes/2993-M3973227,Remodelado,5,2026-06-28
14383-M6342989,"{'id': '3', 'nombre': 'Oficina'}",846000000,94.0,94.0,,5,2,"{'id': '1', 'nombre': 'Bogotá D.C.'}","{'id': '1', 'nombre': 'Norte'}",ASD,BARRACAS,1170000.0,CAROLINA ARIZA BROKER INMOBILIARIA,Usado,"{'lon': -74.02386, 'lat': 4.731087}",https://www.metrocuadrado.com/inmueble/venta-oficina-bogota-asd-5-banos-2-garajes/14383-M6342989,Entre 5 y 10 años,6,2026-06-28
5161-M5350768,"{'id': '3', 'nombre': 'Oficina'}",1580000000,162.0,162.0,,5,2,"{'id': '1', 'nombre': 'Bogotá D.C.'}","{'id': '1', 'nombre': 'Norte'}",A S D ,NORTH POINT,1520000.0,Grupo Terranova,Usado,"{'lon': -74.02375, 'lat': 4.731942}",https://www.metrocuadrado.com/inmueble/venta-oficina-bogota-a.s.d.-5-banos-2-garajes/5161-M5350768,Entre 0 y 5 años,7,2026-06-28
