propertyId,propertyType,salePrice,area,areac,rooms,bathrooms,garages,city,zone,neighborhood,commonNeighborhood,adminPrice,companyName,propertyState,coordinates,link,builtTime,stratum,Extraction Date
12475-M6643488,"{'id': '14', 'nombre': 'Apartaestudio'}",480000000,50.0,50.0,1,2,1,"{'id': '3', 'nombre': 'Medellín'}","{'id': '38', 'nombre': 'Suroriente'}",LOS BALSOS NO  1,EL POBLADO EL TESORO,396000.0,SARA REAL ESTATE 4 U,Usado,"{'lon': -75.56087, 'lat': 6.1893153}",https://www.metrocuadrado.com/inmueble/venta-apartaestudio-medellin-los-balsos-no.-1-1-habitaciones-2-banos-1-garajes/12475-M6643488,Más de 20 años,6,2026-05-31
18237-M6651093,"{'id': '14', 'nombre': 'Apartaestudio'}",610000000,47.0,47.0,1,2,1,"{'id': '3', 'nombre': 'Medellín'}",,CIUDAD DE RIO,Ciudad De Rio,,NEGOCIOS CON PROPOSITO,Usado,"{'lon': -75.57352, 'lat': 6.2208376}",https://www.metrocuadrado.com/inmueble/venta-apartaestudio-medellin-ciudad-de-rio-1-habitaciones-2-banos-1-garajes/18237-M6651093,Entre 0 y 5 años,5,2026-05-31
MC6521717,"{'id': '14', 'nombre': 'Apartaestudio'}",250000000,34.6,34.6,1,1,0,"{'id': '3', 'nombre': 'Medellín'}","{'id': '35', 'nombre': 'Noroccidente'}",CAMPO ALEGRE,LA AMERICA   Zona Urbana ,131000.0,,Usado,"{'lon': -75.61047, 'lat': 6.254827}",https://www.metrocuadrado.com/inmueble/venta-apartaestudio-medellin-campo-alegre-1-habitaciones-1-banos/MC6521717,Remodelado,4,2026-05-31
20543-M5863141,"{'id': '14', 'nombre': 'Apartaestudio'}",480000000,54.0,54.0,1,2,1,"{'id': '3', 'nombre': 'Medellín'}","{'id': '38', 'nombre': 'Suroriente'}",PATIO BONITO,EL POBLADO,460000.0,NATHALIA MARTINEZ MEJIA,Usado,"{'lon': -75.57704, 'lat': 6.2134905}",https://www.metrocuadrado.com/inmueble/venta-apartaestudio-medellin-patio-bonito-1-habitaciones-2-banos-1-garajes/20543-M5863141,Más de 20 años,5,2026-05-31
22365-M6709852,"{'id': '14', 'nombre': 'Apartaestudio'}",750000000,62.0,62.0,1,2,1,"{'id': '3', 'nombre': 'Medellín'}","{'id': '38', 'nombre': 'Suroriente'}",SAN LUCAS,Poblado,670000.0,LUXO CAPITAL S.A.S,Usado,"{'lon': -75.5694, 'lat': 6.181027}",https://www.metrocuadrado.com/inmueble/venta-apartaestudio-medellin-san-lucas-1-habitaciones-2-banos-1-garajes/22365-M6709852,Entre 0 y 5 años,6,2026-05-31
21410-M6145258,"{'id': '14', 'nombre': 'Apartaestudio'}",370000000,38.0,38.0,1,1,0,"{'id': '3', 'nombre': 'Medellín'}","{'id': '37', 'nombre': 'Suroccidente'}",URBANIZACION PLAZA VICUNA,BELEN LOS ALPES,536131.0,ARRENDAMIENTOS MEDELLÍN,Usado,"{'lon': -75.6056, 'lat': 6.231157}",https://www.metrocuadrado.com/inmueble/venta-apartaestudio-medellin-urbanizacion-plaza-vicuna-1-habitaciones-1-banos/21410-M6145258,Entre 5 y 10 años,4,2026-05-31
13297-M6119040,"{'id': '1', 'nombre': 'Apartamento'}",620000000,70.0,70.0,1,2,1,"{'id': '3', 'nombre': 'Medellín'}","{'id': '35', 'nombre': 'Noroccidente'}",LAURELES,LAURELES,285000.0,BIENES Y AUTOS .COM,Usado,"{'lon': -75.59716, 'lat': 6.2454033}",https://www.metrocuadrado.com/inmueble/venta-apartamento-medellin-laureles-1-habitaciones-2-banos-1-garajes/13297-M6119040,Entre 10 y 20 años,5,2026-05-31
16507-M6318282,"{'id': '1', 'nombre': 'Apartamento'}",329000000,49.0,49.0,1,1,0,"{'id': '3', 'nombre': 'Medellín'}",,LOS COLORES,Los Colores,300000.0,CONECTAR INMOBILIARIA,Usado,"{'lon': -75.5888, 'lat': 6.2617016}",https://www.metrocuadrado.com/inmueble/venta-apartamento-medellin-los-colores-1-habitaciones-1-banos/16507-M6318282,Entre 0 y 5 años,5,2026-05-31
11976-M6052200,"{'id': '1', 'nombre': 'Apartamento'}",740000000,79.0,79.0,1,2,1,"{'id': '3', 'nombre': 'Medellín'}","{'id': '38', 'nombre': 'Suroriente'}",VILLA CARLOTA,Ciudad Del Rio,630000.0,ALEXANDRA SUAREZ BIENES RAICES,Usado,"{'lon': -75.57307, 'lat': 6.223965}",https://www.metrocuadrado.com/inmueble/venta-apartamento-medellin-villa-carlota-1-habitaciones-2-banos-1-garajes/11976-M6052200,Entre 0 y 5 años,5,2026-05-31
14779-M5803436,"{'id': '1', 'nombre': 'Apartamento'}",735000000,70.0,70.0,1,2,1,"{'id': '3', 'nombre': 'Medellín'}","{'id': '36', 'nombre': 'Nororiente'}",SIMESA,Poblado,350000.0,SU RED INMOBILIARIA ,Usado,"{'lon': -75.57402, 'lat': 6.223573}",https://www.metrocuadrado.com/inmueble/venta-apartamento-medellin-simesa-1-habitaciones-2-banos-1-garajes/14779-M5803436,Entre 0 y 5 años,6,2026-05-31
687-M5258809,"{'id': '1', 'nombre': 'Apartamento'}",940000000,93.0,93.0,1,2,1,"{'id': '3', 'nombre': 'Medellín'}","{'id': '38', 'nombre': 'Suroriente'}",LOS BALSOS NO 1,EL POBLADO,525000.0,PROINTEGRAL SA,Usado,"{'lon': -75.56217, 'lat': 6.1933856}",https://www.metrocuadrado.com/inmueble/venta-apartamento-medellin-los-balsos-no.1-1-habitaciones-2-banos-1-garajes/687-M5258809,Entre 5 y 10 años,6,2026-05-31
20365-M6399564,"{'id': '14', 'nombre': 'Apartaestudio'}",550000000,45.8,45.8,1,1,1,"{'id': '3', 'nombre': 'Medellín'}",,CIUDAD DEL RIO,Ciudad Del Rio,250000.0,Ubikarte,Usado,"{'lon': -75.57224, 'lat': 6.223222}",https://www.metrocuadrado.com/inmueble/venta-apartaestudio-medellin-ciudad-del-rio-1-habitaciones-1-banos-1-garajes/20365-M6399564,Entre 0 y 5 años,5,2026-05-31
22278-M6634725,"{'id': '1', 'nombre': 'Apartamento'}",800000000,68.0,68.0,1,2,1,"{'id': '3', 'nombre': 'Medellín'}",,POBLADO,Poblado,500000.0,Habitar Propiedad Raíz,Usado,"{'lon': -75.566444, 'lat': 6.2270737}",https://www.metrocuadrado.com/inmueble/venta-apartamento-medellin-poblado-1-habitaciones-2-banos-1-garajes/22278-M6634725,Más de 20 años,5,2026-05-31
22123-M6422498,"{'id': '14', 'nombre': 'Apartaestudio'}",520000000,52.0,52.0,1,2,1,"{'id': '3', 'nombre': 'Medellín'}",,CIUDAD DEL RIO,Ciudad Del Rio,300000.0,EL SITIO INMOBILIARIO S.A,Usado,"{'lon': -75.57269, 'lat': 6.2230835}",https://www.metrocuadrado.com/inmueble/venta-apartaestudio-medellin-ciudad-del-rio-1-habitaciones-2-banos-1-garajes/22123-M6422498,Entre 0 y 5 años,5,2026-05-31
22123-M6625208,"{'id': '14', 'nombre': 'Apartaestudio'}",600000000,56.0,56.0,1,2,1,"{'id': '3', 'nombre': 'Medellín'}",,NA,Ciudad Del Rio,324000.0,EL SITIO INMOBILIARIO S.A,Usado,"{'lon': 0, 'lat': 0}",https://www.metrocuadrado.com/inmueble/venta-apartaestudio-medellin-na-1-habitaciones-2-banos-1-garajes/22123-M6625208,Entre 0 y 5 años,5,2026-05-31
