propertyId,propertyType,salePrice,area,areac,rooms,bathrooms,garages,city,zone,neighborhood,commonNeighborhood,adminPrice,companyName,propertyState,coordinates,link,builtTime,stratum,Extraction Date
20585-M6012356,"{'id': '1', 'nombre': 'Apartamento'}",390000000,48.0,50.0,1,1,1,"{'id': '1', 'nombre': 'Bogotá D.C.'}","{'id': '4', 'nombre': 'Occidental'}",NICOLAS DE FEDERMAN,NICOLAS DE FEDERMAN,265000.0,INMOBILIARIA IMPERIAL 1932,Usado,"{'lon': -74.08349, 'lat': 4.65091}",https://www.metrocuadrado.com/inmueble/venta-apartamento-bogota-nicolas-de-federman-1-habitaciones-1-banos-1-garajes/20585-M6012356,Entre 5 y 10 años,5,2025-08-27
MC6008798,"{'id': '1', 'nombre': 'Apartamento'}",420000000,38.3,37.59,1,1,0,"{'id': '1', 'nombre': 'Bogotá D.C.'}","{'id': '5', 'nombre': 'Centro'}",LAS NIEVES,LAS NIEVES   Centro Internacional,418000.0,,Usado,"{'lon': -74.07026, 'lat': 4.610189}",https://www.metrocuadrado.com/inmueble/venta-apartamento-bogota-las-nieves-1-habitaciones-1-banos/MC6008798,Entre 0 y 5 años,3,2025-08-27
MC6008853,"{'id': '1', 'nombre': 'Apartamento'}",240000000,25.69,27.82,1,1,0,"{'id': '1', 'nombre': 'Bogotá D.C.'}","{'id': '3', 'nombre': 'Noroccidente'}",CJR PUNTO 82,POLO CLUB   Chicó,250000.0,,Usado,"{'lon': -74.0623, 'lat': 4.6700215}",https://www.metrocuadrado.com/inmueble/venta-apartamento-bogota-cjr-punto-82-1-habitaciones-1-banos/MC6008853,Entre 0 y 5 años,4,2025-08-27
15535-M5749336,"{'id': '14', 'nombre': 'Apartaestudio'}",245000000,36.39,36.39,1,1,0,"{'id': '1', 'nombre': 'Bogotá D.C.'}",,LAGO GAITAN,Lago Gaitan,314000.0,LUZ AURORA BIENES RAICES,Usado,"{'lon': -74.05987, 'lat': 4.66463}",https://www.metrocuadrado.com/inmueble/venta-apartaestudio-bogota-lago-gaitan-1-habitaciones-1-banos/15535-M5749336,Más de 20 años,5,2025-08-27
15535-M5819671,"{'id': '14', 'nombre': 'Apartaestudio'}",260000000,18.14,18.14,1,1,0,"{'id': '1', 'nombre': 'Bogotá D.C.'}",,CHAPINERO NORTE,Chapinero Norte,,LUZ AURORA BIENES RAICES,Usado,"{'lon': -74.05749, 'lat': 4.6828}",https://www.metrocuadrado.com/inmueble/venta-apartaestudio-bogota-chapinero-norte-1-habitaciones-1-banos/15535-M5819671,Entre 0 y 5 años,6,2025-08-27
MC6011937,"{'id': '14', 'nombre': 'Apartaestudio'}",280000000,32.0,35.7,1,1,1,"{'id': '1', 'nombre': 'Bogotá D.C.'}","{'id': '4', 'nombre': 'Occidental'}",CJR TARENTO,VILLEMAR FONTIBON   Fontibón Tintal,210000.0,,Usado,"{'lon': -74.14009, 'lat': 4.667887}",https://www.metrocuadrado.com/inmueble/venta-apartaestudio-bogota-cjr-tarento-1-habitaciones-1-banos-1-garajes/MC6011937,Entre 0 y 5 años,3,2025-08-27
MC5360554,"{'id': '1', 'nombre': 'Apartamento'}",224000000,33.0,33.0,1,1,0,"{'id': '1', 'nombre': 'Bogotá D.C.'}","{'id': '3', 'nombre': 'Noroccidente'}",CJR PORTALES DEL PRADO,TIERRA LINDA   Niza Alhambra,160000.0,,Usado,"{'lon': -74.056305, 'lat': 4.7126045}",https://www.metrocuadrado.com/inmueble/venta-apartamento-bogota-cjr-portales-del-prado-1-habitaciones-1-banos/MC5360554,Más de 20 años,3,2025-08-27
18942-M5955106,"{'id': '14', 'nombre': 'Apartaestudio'}",240000000,20.0,20.0,1,1,0,"{'id': '1', 'nombre': 'Bogotá D.C.'}",,CHICO,Chico,304000.0,Grupo Inmobiliario GMT,Usado,"{'lon': -74.05723, 'lat': 4.683766}",https://www.metrocuadrado.com/inmueble/venta-apartaestudio-bogota-chico-1-habitaciones-1-banos/18942-M5955106,Entre 0 y 5 años,6,2025-08-27
MC6013847,"{'id': '14', 'nombre': 'Apartaestudio'}",450000000,41.81,41.81,1,1,1,"{'id': '1', 'nombre': 'Bogotá D.C.'}","{'id': '4', 'nombre': 'Occidental'}",FRANCO,LA FELICIDAD LA ALAMEDA   Fontibón Tintal,450000.0,,Usado,"{'lon': -74.12024, 'lat': 4.6529584}",https://www.metrocuadrado.com/inmueble/venta-apartaestudio-bogota-franco-1-habitaciones-1-banos-1-garajes/MC6013847,Entre 0 y 5 años,4,2025-08-27
18378-M6011801,"{'id': '14', 'nombre': 'Apartaestudio'}",310000000,26.0,26.0,1,1,0,"{'id': '1', 'nombre': 'Bogotá D.C.'}","{'id': '4', 'nombre': 'Occidental'}",EL RECUERDO,EL RECUERDO,302000.0,Luz Marina Urrego Rodriguez,Usado,"{'lon': -74.08508, 'lat': 4.629504}",https://www.metrocuadrado.com/inmueble/venta-apartaestudio-bogota-el-recuerdo-1-habitaciones-1-banos/18378-M6011801,Entre 0 y 5 años,4,2025-08-27
18378-M6011702,"{'id': '14', 'nombre': 'Apartaestudio'}",305000000,26.0,26.0,1,1,0,"{'id': '1', 'nombre': 'Bogotá D.C.'}","{'id': '4', 'nombre': 'Occidental'}",EL RECUERDO,EL RECUERDO,302000.0,Luz Marina Urrego Rodriguez,Usado,"{'lon': -74.08508, 'lat': 4.629504}",https://www.metrocuadrado.com/inmueble/venta-apartaestudio-bogota-el-recuerdo-1-habitaciones-1-banos/18378-M6011702,Entre 0 y 5 años,4,2025-08-27
MC5960864,"{'id': '1', 'nombre': 'Apartamento'}",375000000,41.0,41.0,1,1,1,"{'id': '1', 'nombre': 'Bogotá D.C.'}","{'id': '1', 'nombre': 'Norte'}",SANTA BARBARA OCCIDENTAL,SANTA BARBARA OCCIDENTAL   Chicó,476000.0,,Usado,"{'lon': -74.045555, 'lat': 4.6982093}",https://www.metrocuadrado.com/inmueble/venta-apartamento-bogota-santa-barbara-occidental-1-habitaciones-1-banos-1-garajes/MC5960864,Más de 20 años,6,2025-08-27
16708-M6004300,"{'id': '14', 'nombre': 'Apartaestudio'}",410000000,27.0,27.0,1,1,0,"{'id': '1', 'nombre': 'Bogotá D.C.'}","{'id': '1', 'nombre': 'Norte'}",CHICO NORTE ET II,CHICO NORTE,250000.0,MONICA PAEZ,Usado,"{'lon': -74.04715, 'lat': 4.682512}",https://www.metrocuadrado.com/inmueble/venta-apartaestudio-bogota-chico-norte-et-ii-1-habitaciones-1-banos/16708-M6004300,Entre 0 y 5 años,6,2025-08-27
MC6012234,"{'id': '14', 'nombre': 'Apartaestudio'}",374000000,34.0,34.0,1,1,0,"{'id': '1', 'nombre': 'Bogotá D.C.'}","{'id': '5', 'nombre': 'Centro'}",LA CONCORDIA,LA CANDELARIA CENTRO   Centro y Zona Colonial,360000.0,,Usado,"{'lon': -74.0689, 'lat': 4.5978637}",https://www.metrocuadrado.com/inmueble/venta-apartaestudio-bogota-la-concordia-1-habitaciones-1-banos/MC6012234,Entre 0 y 5 años,1,2025-08-27
19914-M5978588,"{'id': '1', 'nombre': 'Apartamento'}",620000000,58.0,63.0,1,1,2,"{'id': '1', 'nombre': 'Bogotá D.C.'}","{'id': '1', 'nombre': 'Norte'}",PRADOS DE LA CALLEJA,CALLEJA BAJA,380000.0,BROKER MARIA TROJAS MARTINEZ REAL STATE,Usado,"{'lon': -74.04823, 'lat': 4.7141433}",https://www.metrocuadrado.com/inmueble/venta-apartamento-bogota-prados-de-la-calleja-1-habitaciones-1-banos-2-garajes/19914-M5978588,Entre 5 y 10 años,5,2025-08-27
