propertyId,propertyType,salePrice,area,areac,rooms,bathrooms,garages,city,zone,neighborhood,commonNeighborhood,adminPrice,companyName,propertyState,coordinates,link,builtTime,stratum,Extraction Date
17237-M6679283,"{'id': '1', 'nombre': 'Apartamento'}",340000000,56.66,56.66,1,1,0,"{'id': '1', 'nombre': 'Bogotá D.C.'}","{'id': '5', 'nombre': 'Centro'}",EDUARDO SANTOS,EL CENTRO,437000.0,ASESORÍAS EL BUEN CASTILLO,Usado,"{'lon': -74.08884, 'lat': 4.5961456}",https://www.metrocuadrado.com/inmueble/venta-apartamento-bogota-eduardo-santos-1-habitaciones-1-banos/17237-M6679283,Más de 20 años,3,2026-05-18
MC6674799,"{'id': '1', 'nombre': 'Apartamento'}",259000000,38.0,38.0,1,1,0,"{'id': '1', 'nombre': 'Bogotá D.C.'}","{'id': '4', 'nombre': 'Occidental'}",VERAGUAS,TIBANA   Puente Aranda,180000.0,,Usado,"{'lon': -74.10448, 'lat': 4.609115}",https://www.metrocuadrado.com/inmueble/venta-apartamento-bogota-veraguas-1-habitaciones-1-banos/MC6674799,Entre 0 y 5 años,3,2026-05-18
18222-M6441449,"{'id': '14', 'nombre': 'Apartaestudio'}",464566000,31.87,39.37,1,1,1,"{'id': '1', 'nombre': 'Bogotá D.C.'}","{'id': '1', 'nombre': 'Norte'}",EL CONTADOR,EL CONTADOR USAQUEN,10000.0,GyG Pro Investment,Usado,"{'lon': -74.04575, 'lat': 4.7219667}",https://www.metrocuadrado.com/inmueble/venta-apartaestudio-bogota-el-contador-1-habitaciones-1-banos-1-garajes/18222-M6441449,Entre 0 y 5 años,5,2026-05-18
18222-M6456860,"{'id': '14', 'nombre': 'Apartaestudio'}",294960000,35.35,35.35,1,1,1,"{'id': '1', 'nombre': 'Bogotá D.C.'}","{'id': '4', 'nombre': 'Occidental'}",JOSE JOAQUIN VARGAS,JOSE JOAQUIN VARGAS,10000.0,GyG Pro Investment,Usado,"{'lon': -74.084946, 'lat': 4.674044}",https://www.metrocuadrado.com/inmueble/venta-apartaestudio-bogota-jose-joaquin-vargas-1-habitaciones-1-banos-1-garajes/18222-M6456860,Entre 0 y 5 años,4,2026-05-18
17181-M6337412,"{'id': '1', 'nombre': 'Apartamento'}",1075000000,80.0,80.0,1,2,2,"{'id': '1', 'nombre': 'Bogotá D.C.'}","{'id': '1', 'nombre': 'Norte'}",LOS ROSALES,LOS ROSALES,1120000.0,GRUPO INMOBILIARIO  LUXNIA SAS,Usado,"{'lon': -74.04685, 'lat': 4.662999}",https://www.metrocuadrado.com/inmueble/venta-apartamento-bogota-los-rosales-1-habitaciones-2-banos-2-garajes/17181-M6337412,Entre 5 y 10 años,6,2026-05-18
22393-M6561809,"{'id': '1', 'nombre': 'Apartamento'}",235000000,35.0,29.0,1,1,0,"{'id': '1', 'nombre': 'Bogotá D.C.'}",,USAQUEN,Usaquen,177000.0,AVB INMOBILIARIO ,Usado,"{'lon': -74.02718, 'lat': 4.7488403}",https://www.metrocuadrado.com/inmueble/venta-apartamento-bogota-usaquen-1-habitaciones-1-banos/22393-M6561809,Entre 0 y 5 años,3,2026-05-18
MC6677055,"{'id': '1', 'nombre': 'Apartamento'}",480000000,64.0,64.0,1,2,1,"{'id': '1', 'nombre': 'Bogotá D.C.'}","{'id': '1', 'nombre': 'Norte'}",MOLINOS NORTE,MOLINOS NORTE   Santa Bárbara,570000.0,,Usado,"{'lon': -74.03879, 'lat': 4.6919203}",https://www.metrocuadrado.com/inmueble/venta-apartamento-bogota-molinos-norte-1-habitaciones-2-banos-1-garajes/MC6677055,Más de 20 años,6,2026-05-18
617-M6627185,"{'id': '1', 'nombre': 'Apartamento'}",285000000,31.8,35.8,1,1,0,"{'id': '1', 'nombre': 'Bogotá D.C.'}",,CIUDAD SALITRE ORIENTAL,Ciudad Salitre Oriental,136000.0,Ideal Homes Co,Usado,"{'lon': -74.09096, 'lat': 4.622794}",https://www.metrocuadrado.com/inmueble/venta-apartamento-bogota-ciudad-salitre-oriental-1-habitaciones-1-banos/617-M6627185,Más de 20 años,4,2026-05-18
MC6574674,"{'id': '14', 'nombre': 'Apartaestudio'}",230000000,30.0,31.4,1,1,0,"{'id': '1', 'nombre': 'Bogotá D.C.'}","{'id': '3', 'nombre': 'Noroccidente'}",CIUDAD JARDIN NORTE,ARBOLEDA DE GRATAMIRA   Colina y Alrededores,300000.0,,Usado,"{'lon': -74.0731, 'lat': 4.7241783}",https://www.metrocuadrado.com/inmueble/venta-apartaestudio-bogota-ciudad-jardin-norte-1-habitaciones-1-banos/MC6574674,Entre 0 y 5 años,4,2026-05-18
MC6668851,"{'id': '14', 'nombre': 'Apartaestudio'}",315000000,26.5,30.0,1,1,0,"{'id': '1', 'nombre': 'Bogotá D.C.'}","{'id': '4', 'nombre': 'Occidental'}",PARQUE POPULAR SALITRE,BARRIOS UNIDOS   Engativá,110000.0,,Usado,"{'lon': -74.08436, 'lat': 4.668719}",https://www.metrocuadrado.com/inmueble/venta-apartaestudio-bogota-parque-popular-salitre-1-habitaciones-1-banos/MC6668851,Entre 0 y 5 años,4,2026-05-18
MC6668954,"{'id': '14', 'nombre': 'Apartaestudio'}",500000000,49.0,51.0,1,2,2,"{'id': '1', 'nombre': 'Bogotá D.C.'}","{'id': '3', 'nombre': 'Noroccidente'}",NIZA NORTE,NIZA NORTE   Country,450000.0,,Usado,"{'lon': -74.0761, 'lat': 4.713169}",https://www.metrocuadrado.com/inmueble/venta-apartaestudio-bogota-niza-norte-1-habitaciones-2-banos-2-garajes/MC6668954,Entre 0 y 5 años,5,2026-05-18
MC6523696,"{'id': '1', 'nombre': 'Apartamento'}",439000000,44.0,44.0,1,1,1,"{'id': '1', 'nombre': 'Bogotá D.C.'}","{'id': '1', 'nombre': 'Norte'}",CHICO NORTE ET  II,CHICO RESERVADO   Santa Bárbara,,,Usado,"{'lon': -74.04274, 'lat': 4.677908}",https://www.metrocuadrado.com/inmueble/venta-apartamento-bogota-chico-norte-et.-ii-1-habitaciones-1-banos-1-garajes/MC6523696,Más de 20 años,6,2026-05-18
346-M5964321,"{'id': '1', 'nombre': 'Apartamento'}",220000000,21.0,21.0,1,1,0,"{'id': '1', 'nombre': 'Bogotá D.C.'}",,CHAPINERO,Chapinero,194800.0,Luis Soto u0026 CIA SA,Usado,"{'lon': -74.06373, 'lat': 4.6445}",https://www.metrocuadrado.com/inmueble/venta-apartamento-bogota-chapinero-1-habitaciones-1-banos/346-M5964321,Entre 0 y 5 años,3,2026-05-18
21373-M6676656,"{'id': '14', 'nombre': 'Apartaestudio'}",520000000,52.0,52.0,1,2,1,"{'id': '1', 'nombre': 'Bogotá D.C.'}",,SANTA BARBARA,Santa Barbara,,AVANTA INMOBILIARIA,Usado,"{'lon': -74.029366, 'lat': 4.7010603}",https://www.metrocuadrado.com/inmueble/venta-apartaestudio-bogota-santa-barbara-1-habitaciones-2-banos-1-garajes/21373-M6676656,Entre 0 y 5 años,5,2026-05-18
