propertyId,propertyType,salePrice,area,areac,rooms,bathrooms,garages,city,zone,neighborhood,commonNeighborhood,adminPrice,companyName,propertyState,coordinates,link,builtTime,stratum,Extraction Date
21242-M6490530,"{'id': '14', 'nombre': 'Apartaestudio'}",270000000,23.16,23.16,1,1,0,"{'id': '1', 'nombre': 'Bogotá D.C.'}","{'id': '3', 'nombre': 'Noroccidente'}",LA CASTELLANA,CASTELLANA,300000.0,ECOINCLUSIVA SAS,Usado,"{'lon': -74.058716, 'lat': 4.6831174}",https://www.metrocuadrado.com/inmueble/venta-apartaestudio-bogota-la-castellana-1-habitaciones-1-banos/21242-M6490530,Entre 0 y 5 años,5,2026-04-08
MC6446386,"{'id': '1', 'nombre': 'Apartamento'}",309000000,26.0,31.0,1,1,0,"{'id': '1', 'nombre': 'Bogotá D.C.'}","{'id': '4', 'nombre': 'Occidental'}",PARQUE POPULAR SALITRE,JOSE JOAQUIN VARGAS   Engativá,123000.0,,Usado,"{'lon': -74.08436, 'lat': 4.668719}",https://www.metrocuadrado.com/inmueble/venta-apartamento-bogota-parque-popular-salitre-1-habitaciones-1-banos/MC6446386,Entre 0 y 5 años,4,2026-04-08
MC6182719,"{'id': '1', 'nombre': 'Apartamento'}",369000000,27.0,29.0,1,1,1,"{'id': '1', 'nombre': 'Bogotá D.C.'}","{'id': '1', 'nombre': 'Norte'}",CHICO NORTE ET  III,CHICO NORTE III   Zona Urbana,330000.0,,Usado,"{'lon': -74.05439, 'lat': 4.682436}",https://www.metrocuadrado.com/inmueble/venta-apartamento-bogota-chico-norte-et.-iii-1-habitaciones-1-banos-1-garajes/MC6182719,Entre 0 y 5 años,6,2026-04-08
MC6301762,"{'id': '1', 'nombre': 'Apartamento'}",250000000,30.0,35.0,1,1,1,"{'id': '1', 'nombre': 'Bogotá D.C.'}","{'id': '1', 'nombre': 'Norte'}",EL REDIL,EL REDIL   Zona Urbana,,,Usado,"{'lon': -74.02392, 'lat': 4.7500405}",https://www.metrocuadrado.com/inmueble/venta-apartamento-bogota-el-redil-1-habitaciones-1-banos-1-garajes/MC6301762,Entre 0 y 5 años,4,2026-04-08
MC6544689,"{'id': '1', 'nombre': 'Apartamento'}",207000000,32.0,25.0,1,1,0,"{'id': '1', 'nombre': 'Bogotá D.C.'}","{'id': '1', 'nombre': 'Norte'}",CANELO,SAN ANTONIO NOROCCIDENTAL   Antonio Nariño,136000.0,,Usado,"{'lon': -74.02817, 'lat': 4.751608}",https://www.metrocuadrado.com/inmueble/venta-apartamento-bogota-canelo-1-habitaciones-1-banos/MC6544689,Entre 5 y 10 años,2,2026-04-08
21386-M6525080,"{'id': '14', 'nombre': 'Apartaestudio'}",205000000,30.0,30.0,1,1,0,"{'id': '1', 'nombre': 'Bogotá D.C.'}","{'id': '5', 'nombre': 'Centro'}",LAS NIEVES,CENTRO LAS NIEVES,151400.0,Solarquitec,Usado,"{'lon': -74.070015, 'lat': 4.608952}",https://www.metrocuadrado.com/inmueble/venta-apartaestudio-bogota-las-nieves-1-habitaciones-1-banos/21386-M6525080,Entre 5 y 10 años,3,2026-04-08
5483-M5959865,"{'id': '14', 'nombre': 'Apartaestudio'}",245000000,35.0,35.0,1,1,0,"{'id': '1', 'nombre': 'Bogotá D.C.'}","{'id': '102', 'nombre': 'Otros'}",SANTA TERESA,SANTA TERESA,190000.0,RAICES Y ESPACIOS ,Usado,"{'lon': -74.027466, 'lat': 4.7472615}",https://www.metrocuadrado.com/inmueble/venta-apartaestudio-bogota-santa-teresa-1-habitaciones-1-banos/5483-M5959865,Entre 0 y 5 años,4,2026-04-08
15955-M6418470,"{'id': '1', 'nombre': 'Apartamento'}",340000000,33.82,37.18,1,2,1,"{'id': '1', 'nombre': 'Bogotá D.C.'}","{'id': '1', 'nombre': 'Norte'}",CEDRO SALAZAR,CEDRITOS,265000.0,INNOVAR Y ASESORIAS,Usado,"{'lon': -74.02952, 'lat': 4.7248187}",https://www.metrocuadrado.com/inmueble/venta-apartamento-bogota-cedro-salazar-1-habitaciones-2-banos-1-garajes/15955-M6418470,Entre 5 y 10 años,4,2026-04-08
MC6554029,"{'id': '1', 'nombre': 'Apartamento'}",630000000,64.7,60.0,1,2,2,"{'id': '1', 'nombre': 'Bogotá D.C.'}","{'id': '1', 'nombre': 'Norte'}",CHICO NORTE,CHICO NORTE II   Zona Urbana,,,Usado,"{'lon': -74.05497, 'lat': 4.679964}",https://www.metrocuadrado.com/inmueble/venta-apartamento-bogota-chico-norte-1-habitaciones-2-banos-2-garajes/MC6554029,Entre 5 y 10 años,6,2026-04-08
MC6369506,"{'id': '1', 'nombre': 'Apartamento'}",290000000,38.0,38.0,1,1,1,"{'id': '1', 'nombre': 'Bogotá D.C.'}","{'id': '2', 'nombre': 'Chapinero'}",CHAPINERO CENTRAL,CHAPINERO CENTRAL   Chapinero,516000.0,,Usado,"{'lon': -74.06294, 'lat': 4.6435795}",https://www.metrocuadrado.com/inmueble/venta-apartamento-bogota-chapinero-central-1-habitaciones-1-banos-1-garajes/MC6369506,Entre 10 y 20 años,3,2026-04-08
17240-M6412109,"{'id': '1', 'nombre': 'Apartamento'}",261000000,18.0,22.73,1,1,0,"{'id': '1', 'nombre': 'Bogotá D.C.'}","{'id': '4', 'nombre': 'Occidental'}",NORMANDIA OCCIDENTAL,NORMANDIA,180000.0,Bienes Raices Porfesionales ,Usado,"{'lon': -74.11106, 'lat': 4.668883}",https://www.metrocuadrado.com/inmueble/venta-apartamento-bogota-normandia-occidental-1-habitaciones-1-banos/17240-M6412109,Entre 0 y 5 años,4,2026-04-08
MC6466115,"{'id': '1', 'nombre': 'Apartamento'}",460000000,56.0,56.0,1,2,1,"{'id': '1', 'nombre': 'Bogotá D.C.'}","{'id': '5', 'nombre': 'Centro'}",SAMPER,Centro Internacional,392000.0,,Usado,"{'lon': -74.06897, 'lat': 4.6184483}",https://www.metrocuadrado.com/inmueble/venta-apartamento-bogota-samper-1-habitaciones-2-banos-1-garajes/MC6466115,Entre 10 y 20 años,4,2026-04-08
21334-M6315830,"{'id': '1', 'nombre': 'Apartamento'}",585000000,75.0,75.0,1,2,1,"{'id': '1', 'nombre': 'Bogotá D.C.'}","{'id': '1', 'nombre': 'Norte'}",SANTA BARBARA CENTRAL,SANTA BARBARA CENTRAL,602000.0,ARBOLEDA REAL STATE,Usado,"{'lon': -74.03862, 'lat': 4.696625}",https://www.metrocuadrado.com/inmueble/venta-apartamento-bogota-santa-barbara-central-1-habitaciones-2-banos-1-garajes/21334-M6315830,Entre 10 y 20 años,6,2026-04-08
MC6553198,"{'id': '14', 'nombre': 'Apartaestudio'}",280000000,22.1,25.45,1,1,0,"{'id': '1', 'nombre': 'Bogotá D.C.'}","{'id': '1', 'nombre': 'Norte'}",LOS CEDRITOS,CEDRITOS   Cedritos,,,Usado,"{'lon': -74.04718, 'lat': 4.724516}",https://www.metrocuadrado.com/inmueble/venta-apartaestudio-bogota-los-cedritos-1-habitaciones-1-banos/MC6553198,Entre 0 y 5 años,4,2026-04-08
MC6523696,"{'id': '1', 'nombre': 'Apartamento'}",439000000,44.0,44.0,1,1,1,"{'id': '1', 'nombre': 'Bogotá D.C.'}","{'id': '1', 'nombre': 'Norte'}",CHICO NORTE ET  II,CHICO RESERVADO   Santa Bárbara,,,Usado,"{'lon': -74.04274, 'lat': 4.677908}",https://www.metrocuadrado.com/inmueble/venta-apartamento-bogota-chico-norte-et.-ii-1-habitaciones-1-banos-1-garajes/MC6523696,Más de 20 años,6,2026-04-08
