propertyId,propertyType,salePrice,area,areac,rooms,bathrooms,garages,city,zone,neighborhood,commonNeighborhood,adminPrice,companyName,propertyState,coordinates,link,builtTime,stratum,Extraction Date
20225-M6008404,"{'id': '1', 'nombre': 'Apartamento'}",593000000,48.0,50.0,1,2,1,"{'id': '3', 'nombre': 'Medellín'}","{'id': '38', 'nombre': 'Suroriente'}",SIMESA,CIUDAD DEL RIO,400000.0,EMD GRUPO EMPRESARIAL  SAS,Usado,"{'lon': -75.57352, 'lat': 6.2208376}",https://www.metrocuadrado.com/inmueble/venta-apartamento-medellin-simesa-1-habitaciones-2-banos-1-garajes/20225-M6008404,Entre 0 y 5 años,5,2025-09-15
20033-M5769399,"{'id': '1', 'nombre': 'Apartamento'}",800000000,70.0,70.0,1,2,0,"{'id': '3', 'nombre': 'Medellín'}","{'id': '38', 'nombre': 'Suroriente'}",SIMESA,Ciudad Del Rio,,AGENCIA INMOBILIARIA,Usado,"{'lon': -75.57377, 'lat': 6.22406}",https://www.metrocuadrado.com/inmueble/venta-apartamento-medellin-simesa-1-habitaciones-2-banos/20033-M5769399,Entre 5 y 10 años,5,2025-09-15
20543-M5940553,"{'id': '1', 'nombre': 'Apartamento'}",720000000,63.0,63.0,1,2,1,"{'id': '3', 'nombre': 'Medellín'}","{'id': '38', 'nombre': 'Suroriente'}",LA AGUACATALA,LA AGUACATALA,640000.0,NATHALIA MARTINEZ MEJIA,Usado,"{'lon': -75.57789, 'lat': 6.199026}",https://www.metrocuadrado.com/inmueble/venta-apartamento-medellin-la-aguacatala-1-habitaciones-2-banos-1-garajes/20543-M5940553,Entre 5 y 10 años,5,2025-09-15
755-M6010223,"{'id': '14', 'nombre': 'Apartaestudio'}",698000000,53.0,53.0,1,2,1,"{'id': '3', 'nombre': 'Medellín'}","{'id': '38', 'nombre': 'Suroriente'}",ALEJANDRIA,El Poblado,800000.0,Deslumbra SAS,Usado,"{'lon': -75.56755, 'lat': 6.1991234}",https://www.metrocuadrado.com/inmueble/venta-apartaestudio-medellin-alejandria-1-habitaciones-2-banos-1-garajes/755-M6010223,Entre 5 y 10 años,6,2025-09-15
20811-M6012903,"{'id': '1', 'nombre': 'Apartamento'}",345000000,67.4,67.4,1,2,0,"{'id': '3', 'nombre': 'Medellín'}",,LA CANDELARIA,La Candelaria,400000.0,COFFEE REALTY SAS,Usado,"{'lon': -75.56254, 'lat': 6.2513976}",https://www.metrocuadrado.com/inmueble/venta-apartamento-medellin-la-candelaria-1-habitaciones-2-banos/20811-M6012903,Más de 20 años,3,2025-09-15
20772-M5993692,"{'id': '14', 'nombre': 'Apartaestudio'}",680000000,60.0,60.0,1,2,2,"{'id': '3', 'nombre': 'Medellín'}","{'id': '38', 'nombre': 'Suroriente'}",LOS BALSOS NO 2,Los Balsos,,COMPAÑIA INMOBILIARIA INTERBIENES,Usado,"{'lon': -75.57119, 'lat': 6.196263}",https://www.metrocuadrado.com/inmueble/venta-apartaestudio-medellin-los-balsos-no.2-1-habitaciones-2-banos-2-garajes/20772-M5993692,Entre 0 y 5 años,6,2025-09-15
20543-M5863141,"{'id': '14', 'nombre': 'Apartaestudio'}",480000000,54.0,54.0,1,2,1,"{'id': '3', 'nombre': 'Medellín'}","{'id': '38', 'nombre': 'Suroriente'}",PATIO BONITO,EL POBLADO,460000.0,NATHALIA MARTINEZ MEJIA,Usado,"{'lon': -75.57704, 'lat': 6.2134905}",https://www.metrocuadrado.com/inmueble/venta-apartaestudio-medellin-patio-bonito-1-habitaciones-2-banos-1-garajes/20543-M5863141,Más de 20 años,5,2025-09-15
16642-M5809102,"{'id': '1', 'nombre': 'Apartamento'}",890000000,79.0,79.0,1,2,1,"{'id': '3', 'nombre': 'Medellín'}","{'id': '102', 'nombre': 'Otros'}",SIMESA,CIUDAD DEL RIO,587000.0,BODEGAS MAGNO INVERSIONES,Usado,"{'lon': -75.573235, 'lat': 6.224265}",https://www.metrocuadrado.com/inmueble/venta-apartamento-medellin-simesa-1-habitaciones-2-banos-1-garajes/16642-M5809102,Entre 0 y 5 años,5,2025-09-15
20772-M5993746,"{'id': '1', 'nombre': 'Apartamento'}",690000000,64.0,64.0,1,2,1,"{'id': '3', 'nombre': 'Medellín'}",,NA,El Poblado,414000.0,COMPAÑIA INMOBILIARIA INTERBIENES,Usado,"{'lon': 0, 'lat': 0}",https://www.metrocuadrado.com/inmueble/venta-apartamento-medellin-na-1-habitaciones-2-banos-1-garajes/20772-M5993746,Entre 0 y 5 años,6,2025-09-15
20033-M5815788,"{'id': '1', 'nombre': 'Apartamento'}",360000000,38.0,38.0,1,1,1,"{'id': '3', 'nombre': 'Medellín'}","{'id': '37', 'nombre': 'Suroccidente'}",LA GLORIA,Belen,412000.0,AGENCIA INMOBILIARIA,Usado,"{'lon': -75.60164, 'lat': 6.220641}",https://www.metrocuadrado.com/inmueble/venta-apartamento-medellin-la-gloria-1-habitaciones-1-banos-1-garajes/20033-M5815788,Entre 5 y 10 años,4,2025-09-15
13297-M5945825,"{'id': '1', 'nombre': 'Apartamento'}",350000000,47.0,47.0,1,1,0,"{'id': '3', 'nombre': 'Medellín'}","{'id': '35', 'nombre': 'Noroccidente'}",BOLIVARIANA,LAURELES,150000.0,BIENES Y AUTOS .COM,Usado,"{'lon': -75.59236, 'lat': 6.24774}",https://www.metrocuadrado.com/inmueble/venta-apartamento-medellin-bolivariana-1-habitaciones-1-banos/13297-M5945825,Entre 5 y 10 años,5,2025-09-15
20543-M5858004,"{'id': '1', 'nombre': 'Apartamento'}",995000000,90.0,90.0,1,2,2,"{'id': '3', 'nombre': 'Medellín'}","{'id': '38', 'nombre': 'Suroriente'}",LA LINDE,EL POBLADO CASTROPOL,1060000.0,NATHALIA MARTINEZ MEJIA,Usado,"{'lon': -75.564896, 'lat': 6.2139316}",https://www.metrocuadrado.com/inmueble/venta-apartamento-medellin-la-linde-1-habitaciones-2-banos-2-garajes/20543-M5858004,Entre 0 y 5 años,6,2025-09-15
687-M5387086,"{'id': '1', 'nombre': 'Apartamento'}",690000000,65.0,65.0,1,2,1,"{'id': '3', 'nombre': 'Medellín'}","{'id': '38', 'nombre': 'Suroriente'}",SAN LUCAS,EL POBLADO,513000.0,PROINTEGRAL SA,Usado,"{'lon': -75.564, 'lat': 6.179964}",https://www.metrocuadrado.com/inmueble/venta-apartamento-medellin-san-lucas-1-habitaciones-2-banos-1-garajes/687-M5387086,Entre 5 y 10 años,6,2025-09-15
687-M4338620,"{'id': '1', 'nombre': 'Apartamento'}",830000000,88.0,88.0,1,3,2,"{'id': '3', 'nombre': 'Medellín'}","{'id': '38', 'nombre': 'Suroriente'}",LOS BALSOS NO 1,EL POBLADO,600000.0,PROINTEGRAL SA,Usado,"{'lon': -75.55982, 'lat': 6.18808}",https://www.metrocuadrado.com/inmueble/venta-apartamento-medellin-los-balsos-no.1-1-habitaciones-3-banos-2-garajes/687-M4338620,Entre 0 y 5 años,6,2025-09-15
