propertyId,propertyType,salePrice,area,areac,rooms,bathrooms,garages,city,zone,neighborhood,commonNeighborhood,adminPrice,companyName,propertyState,coordinates,link,builtTime,stratum,Extraction Date
20238-M5803060,"{'id': '14', 'nombre': 'Apartaestudio'}",229000000,19.0,22.0,1,1,0,"{'id': '1', 'nombre': 'Bogotá D.C.'}","{'id': '1', 'nombre': 'Norte'}",CJR AGORA HAUS 144,CEDRITOS,0,SANDHRA MISCELÁNEA INMOBILIARIA,Usado,"{'lon': -74.0331, 'lat': 4.721578}",https://www.metrocuadrado.com/inmueble/venta-apartaestudio-bogota-cjr-agora-haus-144-1-habitaciones-1-banos/20238-M5803060,Entre 0 y 5 años,4,2025-08-08
12473-M5837188,"{'id': '14', 'nombre': 'Apartaestudio'}",255000000,23.0,25.0,1,1,0,"{'id': '1', 'nombre': 'Bogotá D.C.'}","{'id': '102', 'nombre': 'Otros'}",LAS NIEVES,CENTRO,243000,100 PREDIOS INMOBILIARIA SAS,Usado,"{'lon': -74.0685, 'lat': 4.604958}",https://www.metrocuadrado.com/inmueble/venta-apartaestudio-bogota-las-nieves-1-habitaciones-1-banos/12473-M5837188,Entre 0 y 5 años,3,2025-08-08
4660-M5696144,"{'id': '14', 'nombre': 'Apartaestudio'}",290000000,26.0,26.0,1,1,1,"{'id': '1', 'nombre': 'Bogotá D.C.'}","{'id': '2', 'nombre': 'Chapinero'}",CHAPINERO CENTRAL,Chapinero Central,298000,SU PROPIEDAD,Usado,"{'lon': -74.06295, 'lat': 4.64357}",https://www.metrocuadrado.com/inmueble/venta-apartaestudio-bogota-chapinero-central-1-habitaciones-1-banos-1-garajes/4660-M5696144,Entre 0 y 5 años,3,2025-08-08
5483-M5860361,"{'id': '1', 'nombre': 'Apartamento'}",520000000,62.1,62.1,1,2,1,"{'id': '1', 'nombre': 'Bogotá D.C.'}","{'id': '102', 'nombre': 'Otros'}",SANTA BARBARA OCCIDENTAL,SANTA BARBARA OCCIDENTAL,595000,NEGOCIOS INMOBILIARIOS,Usado,"{'lon': -74.04571, 'lat': 4.70214}",https://www.metrocuadrado.com/inmueble/venta-apartamento-bogota-santa-barbara-occidental-1-habitaciones-2-banos-1-garajes/5483-M5860361,Entre 5 y 10 años,6,2025-08-08
MC5761328,"{'id': '14', 'nombre': 'Apartaestudio'}",285000000,36.0,36.0,1,1,0,"{'id': '1', 'nombre': 'Bogotá D.C.'}","{'id': '2', 'nombre': 'Chapinero'}",SUCRE   EDIF OLIMPO 41,CHAPINERO JAVERIANA   Chapinero Alto,360000,,Usado,"{'lon': -74.06631, 'lat': 4.6289263}",https://www.metrocuadrado.com/inmueble/venta-apartaestudio-bogota-sucre-edif-olimpo-41-1-habitaciones-1-banos/MC5761328,Más de 20 años,4,2025-08-08
MC5973638,"{'id': '1', 'nombre': 'Apartamento'}",205000000,35.0,35.0,1,1,0,"{'id': '1', 'nombre': 'Bogotá D.C.'}","{'id': '1', 'nombre': 'Norte'}",EL REDIL,EL REDIL ORQUIDEAS   Orquídeas,168500,,Usado,"{'lon': -74.02392, 'lat': 4.7500405}",https://www.metrocuadrado.com/inmueble/venta-apartamento-bogota-el-redil-1-habitaciones-1-banos/MC5973638,Entre 0 y 5 años,3,2025-08-08
