propertyId,propertyType,salePrice,area,areac,rooms,bathrooms,garages,city,zone,neighborhood,commonNeighborhood,adminPrice,companyName,propertyState,coordinates,link,builtTime,stratum,Extraction Date
16120-M5713272,"{'id': '1', 'nombre': 'Apartamento'}",990000000,150,90,1,2,3,"{'id': '3', 'nombre': 'Medellín'}",,COLA DEL ZORRO,Cola Del Zorro,638000.0,LIVIN INMOBILIARIA S.A.S.,Usado,"{'lon': -75.55031, 'lat': 6.20586}",https://www.metrocuadrado.com/inmueble/venta-apartamento-medellin-cola-del-zorro-1-habitaciones-2-banos-3-garajes/16120-M5713272,Entre 0 y 5 años,6,2025-08-09
12475-M5840662,"{'id': '14', 'nombre': 'Apartaestudio'}",648000000,57,57,1,2,2,"{'id': '3', 'nombre': 'Medellín'}","{'id': '38', 'nombre': 'Suroriente'}",LAS LOMAS NO 1,EL POBLADO PROVENZA,430000.0,SARA REAL ESTATE 4 U,Usado,"{'lon': -75.562706, 'lat': 6.2074556}",https://www.metrocuadrado.com/inmueble/venta-apartaestudio-medellin-las-lomas-no.1-1-habitaciones-2-banos-2-garajes/12475-M5840662,Más de 20 años,6,2025-08-09
13957-M5590603,"{'id': '1', 'nombre': 'Apartamento'}",400000000,37,37,1,0,0,"{'id': '3', 'nombre': 'Medellín'}","{'id': '38', 'nombre': 'Suroriente'}",LA AGUACATALA,Milla De Oro,,Coninsa Inmobiliaria,Usado,"{'lon': -75.5779, 'lat': 6.20015}",https://www.metrocuadrado.com/inmueble/venta-apartamento-medellin-la-aguacatala-1-habitaciones/13957-M5590603,Entre 10 y 20 años,6,2025-08-09
17098-M5132606,"{'id': '1', 'nombre': 'Apartamento'}",590000000,77,77,1,1,1,"{'id': '3', 'nombre': 'Medellín'}","{'id': '34', 'nombre': 'Centro'}",SAN BENITO,Conquistadores,890000.0,PAULA MONSALVE PROPIEDAD RAIZ,Usado,"{'lon': -75.57178, 'lat': 6.2503276}",https://www.metrocuadrado.com/inmueble/venta-apartamento-medellin-san-benito-1-habitaciones-1-banos-1-garajes/17098-M5132606,Entre 5 y 10 años,5,2025-08-09
687-M5420058,"{'id': '1', 'nombre': 'Apartamento'}",2560000000,254,254,1,1,2,"{'id': '3', 'nombre': 'Medellín'}","{'id': '38', 'nombre': 'Suroriente'}",LA FLORIDA,EL POBLADO,1080000.0,PROINTEGRAL SA,Usado,"{'lon': -75.565094, 'lat': 6.204802}",https://www.metrocuadrado.com/inmueble/venta-apartamento-medellin-la-florida-1-habitaciones-1-banos-2-garajes/687-M5420058,Entre 5 y 10 años,6,2025-08-09
687-M5525495,"{'id': '1', 'nombre': 'Apartamento'}",2910000000,249,249,1,3,2,"{'id': '3', 'nombre': 'Medellín'}","{'id': '38', 'nombre': 'Suroriente'}",LA FLORIDA,EL POBLADO,0.0,PROINTEGRAL SA,Usado,"{'lon': -75.569916, 'lat': 6.2028065}",https://www.metrocuadrado.com/inmueble/venta-apartamento-medellin-la-florida-1-habitaciones-3-banos-2-garajes/687-M5525495,Entre 5 y 10 años,6,2025-08-09
755-M5944205,"{'id': '1', 'nombre': 'Apartamento'}",698000000,53,53,1,2,1,"{'id': '3', 'nombre': 'Medellín'}","{'id': '38', 'nombre': 'Suroriente'}",ALEJANDRIA,El Poblado,800000.0,Deslumbra SAS,Usado,"{'lon': -75.56755, 'lat': 6.1991234}",https://www.metrocuadrado.com/inmueble/venta-apartamento-medellin-alejandria-1-habitaciones-2-banos-1-garajes/755-M5944205,Entre 5 y 10 años,6,2025-08-09
