propertyId,propertyType,salePrice,area,areac,rooms,bathrooms,garages,city,zone,neighborhood,commonNeighborhood,adminPrice,companyName,propertyState,coordinates,link,builtTime,stratum,Extraction Date
912-M6623221,"{'id': '14', 'nombre': 'Apartaestudio'}",200000000,16.0,16.0,1,1,0,"{'id': '3', 'nombre': 'Medellín'}","{'id': '37', 'nombre': 'Suroccidente'}",BELEN,BELEN LA PALMA,190000.0,TORRES u0026 VILLEGAS ASESORES INMOBILIARIOS,Usado,"{'lon': -75.60369, 'lat': 6.231373}",https://www.metrocuadrado.com/inmueble/venta-apartaestudio-medellin-belen-1-habitaciones-1-banos/912-M6623221,Entre 5 y 10 años,4,2026-05-08
18237-M6651093,"{'id': '14', 'nombre': 'Apartaestudio'}",610000000,47.0,47.0,1,2,1,"{'id': '3', 'nombre': 'Medellín'}",,CIUDAD DE RIO,Ciudad De Rio,,NEGOCIOS CON PROPOSITO,Usado,"{'lon': -75.57352, 'lat': 6.2208376}",https://www.metrocuadrado.com/inmueble/venta-apartaestudio-medellin-ciudad-de-rio-1-habitaciones-2-banos-1-garajes/18237-M6651093,Entre 0 y 5 años,5,2026-05-08
18954-M6052502,"{'id': '14', 'nombre': 'Apartaestudio'}",575000000,50.0,50.0,1,2,1,"{'id': '3', 'nombre': 'Medellín'}","{'id': '38', 'nombre': 'Suroriente'}",SIMESA,POBLADO CIUDAD DEL RIO,300000.0,Carolina Úsuga Finanzas Inmobiliarias,Usado,"{'lon': -75.57515, 'lat': 6.2198515}",https://www.metrocuadrado.com/inmueble/venta-apartaestudio-medellin-simesa-1-habitaciones-2-banos-1-garajes/18954-M6052502,Entre 0 y 5 años,5,2026-05-08
21417-M6624123,"{'id': '14', 'nombre': 'Apartaestudio'}",290000000,17.68,17.68,1,1,0,"{'id': '3', 'nombre': 'Medellín'}",,LAURELES,Laureles,500000.0,Ku0026#39;STAINMOBILIARIA  S.A.S,Usado,"{'lon': -75.59241, 'lat': 6.252888}",https://www.metrocuadrado.com/inmueble/venta-apartaestudio-medellin-laureles-1-habitaciones-1-banos/21417-M6624123,Entre 10 y 20 años,3,2026-05-08
22159-M6547646,"{'id': '1', 'nombre': 'Apartamento'}",1240000000,136.0,136.0,1,2,1,"{'id': '3', 'nombre': 'Medellín'}","{'id': '102', 'nombre': 'Otros'}",ALEJANDRIA,EL POBLADO PROVENZA,900000.0,Jenifer Gutierrez Bienes Raices,Usado,"{'lon': -75.56773, 'lat': 6.1985955}",https://www.metrocuadrado.com/inmueble/venta-apartamento-medellin-alejandria-1-habitaciones-2-banos-1-garajes/22159-M6547646,Más de 20 años,6,2026-05-08
21131-M6500838,"{'id': '1', 'nombre': 'Apartamento'}",450000000,64.0,64.0,1,2,1,"{'id': '3', 'nombre': 'Medellín'}","{'id': '38', 'nombre': 'Suroriente'}",LA AGUACATALA,La Aguacatala,637100.0,Negocios Inmobiliarios,Usado,"{'lon': -75.57715, 'lat': 6.198182}",https://www.metrocuadrado.com/inmueble/venta-apartamento-medellin-la-aguacatala-1-habitaciones-2-banos-1-garajes/21131-M6500838,Más de 20 años,4,2026-05-08
21483-M6151841,"{'id': '14', 'nombre': 'Apartaestudio'}",630000000,61.0,61.75,1,2,1,"{'id': '3', 'nombre': 'Medellín'}","{'id': '38', 'nombre': 'Suroriente'}",EL POBLADO,EL POBLADO EL TESORO,386551.0,Mihabitat asesores inmobiliarios,Usado,"{'lon': -75.567696, 'lat': 6.2090645}",https://www.metrocuadrado.com/inmueble/venta-apartaestudio-medellin-el-poblado-1-habitaciones-2-banos-1-garajes/21483-M6151841,Entre 10 y 20 años,6,2026-05-08
14779-M5803436,"{'id': '1', 'nombre': 'Apartamento'}",735000000,70.0,70.0,1,2,1,"{'id': '3', 'nombre': 'Medellín'}","{'id': '36', 'nombre': 'Nororiente'}",SIMESA,Poblado,350000.0,SU RED INMOBILIARIA ,Usado,"{'lon': -75.57402, 'lat': 6.223573}",https://www.metrocuadrado.com/inmueble/venta-apartamento-medellin-simesa-1-habitaciones-2-banos-1-garajes/14779-M5803436,Entre 0 y 5 años,6,2026-05-08
22283-M6554744,"{'id': '1', 'nombre': 'Apartamento'}",995000000,82.0,82.0,1,3,1,"{'id': '3', 'nombre': 'Medellín'}","{'id': '38', 'nombre': 'Suroriente'}",EL POBLADO,ALTOS DEL POBLADO,0.0,UBICARTE 360,Usado,"{'lon': -75.567696, 'lat': 6.2090645}",https://www.metrocuadrado.com/inmueble/venta-apartamento-medellin-el-poblado-1-habitaciones-3-banos-1-garajes/22283-M6554744,Entre 0 y 5 años,6,2026-05-08
687-M6055575,"{'id': '1', 'nombre': 'Apartamento'}",910000000,74.0,74.0,1,2,1,"{'id': '3', 'nombre': 'Medellín'}","{'id': '38', 'nombre': 'Suroriente'}",SAN LUCAS,EL POBLADO,706000.0,PROINTEGRAL SA,Usado,"{'lon': -75.56406, 'lat': 6.1799445}",https://www.metrocuadrado.com/inmueble/venta-apartamento-medellin-san-lucas-1-habitaciones-2-banos-1-garajes/687-M6055575,Entre 10 y 20 años,6,2026-05-08
21303-M6376267,"{'id': '14', 'nombre': 'Apartaestudio'}",580000000,46.93,46.93,1,1,0,"{'id': '3', 'nombre': 'Medellín'}","{'id': '35', 'nombre': 'Noroccidente'}",LAURELES,Laureles,380000.0,NICOLAS PEREZ RODRIGUEZ,Usado,"{'lon': -75.596695, 'lat': 6.2402024}",https://www.metrocuadrado.com/inmueble/venta-apartaestudio-medellin-laureles-1-habitaciones-1-banos/21303-M6376267,Entre 0 y 5 años,5,2026-05-08
16507-M6318282,"{'id': '1', 'nombre': 'Apartamento'}",329000000,49.0,49.0,1,1,0,"{'id': '3', 'nombre': 'Medellín'}",,LOS COLORES,Los Colores,300000.0,CONECTAR INMOBILIARIA,Usado,"{'lon': -75.5888, 'lat': 6.2617016}",https://www.metrocuadrado.com/inmueble/venta-apartamento-medellin-los-colores-1-habitaciones-1-banos/16507-M6318282,Entre 0 y 5 años,5,2026-05-08
20765-M6343598,"{'id': '1', 'nombre': 'Apartamento'}",810000000,75.0,75.0,1,2,1,"{'id': '3', 'nombre': 'Medellín'}",,NA,Alto De Las Palmas,700000.0,PROVENTO INMOBILIARIA SAS,Usado,"{'lon': 0, 'lat': 0}",https://www.metrocuadrado.com/inmueble/venta-apartamento-medellin-na-1-habitaciones-2-banos-1-garajes/20765-M6343598,Entre 0 y 5 años,6,2026-05-08
687-M5555966,"{'id': '1', 'nombre': 'Apartamento'}",750000000,78.0,78.0,1,2,4,"{'id': '3', 'nombre': 'Medellín'}","{'id': '38', 'nombre': 'Suroriente'}",ALEJANDRIA,EL POBLADO,430000.0,PROINTEGRAL SA,Usado,"{'lon': -75.57109, 'lat': 6.1985765}",https://www.metrocuadrado.com/inmueble/venta-apartamento-medellin-alejandria-1-habitaciones-2-banos-4-garajes/687-M5555966,Entre 5 y 10 años,6,2026-05-08
20018-M6635040,"{'id': '14', 'nombre': 'Apartaestudio'}",750000000,72.0,72.0,1,1,1,"{'id': '3', 'nombre': 'Medellín'}",,LALINDE,Lalinde,571000.0,CLARA MARIA MEDINA OCHOA,Usado,"{'lon': -75.567696, 'lat': 6.212935}",https://www.metrocuadrado.com/inmueble/venta-apartaestudio-medellin-lalinde-1-habitaciones-1-banos-1-garajes/20018-M6635040,Entre 10 y 20 años,6,2026-05-08
21369-M6333996,"{'id': '1', 'nombre': 'Apartamento'}",680000000,63.0,63.0,1,2,1,"{'id': '3', 'nombre': 'Medellín'}","{'id': '38', 'nombre': 'Suroriente'}",EL DIAMANTE NO  2,El Poblado,750000.0,CIUDADELA INMOBILIARIA,Usado,"{'lon': -75.57705, 'lat': 6.189027}",https://www.metrocuadrado.com/inmueble/venta-apartamento-medellin-el-diamante-no.-2-1-habitaciones-2-banos-1-garajes/21369-M6333996,Entre 5 y 10 años,6,2026-05-08
22723-M6640373,"{'id': '1', 'nombre': 'Apartamento'}",1050000000,88.0,88.0,1,2,2,"{'id': '3', 'nombre': 'Medellín'}",,LAS PALMAS,Las Palmas,,CITRUS INMOBILIARIA S.A.S. ,Usado,"{'lon': -75.55364, 'lat': 6.20848}",https://www.metrocuadrado.com/inmueble/venta-apartamento-medellin-las-palmas-1-habitaciones-2-banos-2-garajes/22723-M6640373,Entre 0 y 5 años,6,2026-05-08
22370-M6645896,"{'id': '1', 'nombre': 'Apartamento'}",645000000,63.0,63.0,1,1,1,"{'id': '3', 'nombre': 'Medellín'}",,NA,Poblado La Calera,415000.0,MONICA DIAZ PROPIEDAD RAIZ,Usado,"{'lon': 0, 'lat': 0}",https://www.metrocuadrado.com/inmueble/venta-apartamento-medellin-na-1-habitaciones-1-banos-1-garajes/22370-M6645896,Entre 10 y 20 años,6,2026-05-08
20765-M6135338,"{'id': '1', 'nombre': 'Apartamento'}",940000000,94.0,94.0,1,1,1,"{'id': '3', 'nombre': 'Medellín'}",,POBLADO,Poblado,590000.0,PROVENTO INMOBILIARIA SAS,Usado,"{'lon': -75.558556, 'lat': 6.191958}",https://www.metrocuadrado.com/inmueble/venta-apartamento-medellin-poblado-1-habitaciones-1-banos-1-garajes/20765-M6135338,Entre 5 y 10 años,6,2026-05-08
