propertyId,propertyType,salePrice,area,areac,rooms,bathrooms,garages,city,zone,neighborhood,commonNeighborhood,adminPrice,companyName,propertyState,coordinates,link,builtTime,stratum,Extraction Date
703-M5763532,"{'id': '14', 'nombre': 'Apartaestudio'}",230000000,20.5,20.5,1,1,0,"{'id': '1', 'nombre': 'Bogotá D.C.'}",,LA MACARENA,La Macarena,,SI SISTEMA INTEGRAL INMOBILIARIO,Usado,"{'lon': -74.06853, 'lat': 4.6046}",https://www.metrocuadrado.com/inmueble/venta-apartaestudio-bogota-la-macarena-1-habitaciones-1-banos/703-M5763532,Entre 0 y 5 años,3,2026-06-11
MC6748295,"{'id': '1', 'nombre': 'Apartamento'}",297000000,30.0,30.0,1,1,1,"{'id': '1', 'nombre': 'Bogotá D.C.'}","{'id': '4', 'nombre': 'Occidental'}",SANTA CECILIA,Ciudad Salitre,,,Usado,,https://www.metrocuadrado.com/inmueble/venta-apartamento-bogota-santa-cecilia-1-habitaciones-1-banos-1-garajes/MC6748295,Entre 0 y 5 años,4,2026-06-11
20134-M6719570,"{'id': '1', 'nombre': 'Apartamento'}",265000000,38.0,38.0,1,1,1,"{'id': '1', 'nombre': 'Bogotá D.C.'}","{'id': '4', 'nombre': 'Occidental'}",UB CASTILLA REAL,CASTILLA REAL,145000.0,DEYCI MARIA ALVAREZ HERNANDEZ,Usado,"{'lon': -74.134834, 'lat': 4.647659}",https://www.metrocuadrado.com/inmueble/venta-apartamento-bogota-ub-castilla-real-1-habitaciones-1-banos-1-garajes/20134-M6719570,Entre 0 y 5 años,3,2026-06-11
MC6751711,"{'id': '1', 'nombre': 'Apartamento'}",375000000,41.62,41.62,1,1,2,"{'id': '1', 'nombre': 'Bogotá D.C.'}","{'id': '3', 'nombre': 'Noroccidente'}",LAS VILLAS,LAS VILLAS BULEVAR   Niza Alhambra,,,Usado,"{'lon': -74.07047, 'lat': 4.7159348}",https://www.metrocuadrado.com/inmueble/venta-apartamento-bogota-las-villas-1-habitaciones-1-banos-2-garajes/MC6751711,Entre 10 y 20 años,4,2026-06-11
18222-M6441449,"{'id': '14', 'nombre': 'Apartaestudio'}",464566000,31.87,39.37,1,1,1,"{'id': '1', 'nombre': 'Bogotá D.C.'}","{'id': '1', 'nombre': 'Norte'}",EL CONTADOR,EL CONTADOR USAQUEN,10000.0,GyG Pro Investment,Usado,"{'lon': -74.04575, 'lat': 4.7219667}",https://www.metrocuadrado.com/inmueble/venta-apartaestudio-bogota-el-contador-1-habitaciones-1-banos-1-garajes/18222-M6441449,Entre 0 y 5 años,5,2026-06-11
495-M5290713,"{'id': '1', 'nombre': 'Apartamento'}",550000000,45.0,45.0,1,2,1,"{'id': '1', 'nombre': 'Bogotá D.C.'}",,CHICO NORTE III SECTOR,Chico Norte Iii Sector,450000.0,Gestiones Inmobiliarias F.T. SAS,Usado,"{'lon': -74.05598, 'lat': 4.68322}",https://www.metrocuadrado.com/inmueble/venta-apartamento-bogota-chico-norte-iii-sector-1-habitaciones-2-banos-1-garajes/495-M5290713,Entre 5 y 10 años,6,2026-06-11
MC6599959,"{'id': '1', 'nombre': 'Apartamento'}",485000000,50.0,68.0,1,1,1,"{'id': '1', 'nombre': 'Bogotá D.C.'}","{'id': '1', 'nombre': 'Norte'}",RINCON DEL CHICO,Santa Barbara,590000.0,,Usado,"{'lon': -74.04459, 'lat': 4.6858883}",https://www.metrocuadrado.com/inmueble/venta-apartamento-bogota-rincon-del-chico-1-habitaciones-1-banos-1-garajes/MC6599959,Remodelado,6,2026-06-11
19258-M6749275,"{'id': '1', 'nombre': 'Apartamento'}",282000000,32.0,35.0,1,1,0,"{'id': '1', 'nombre': 'Bogotá D.C.'}","{'id': '1', 'nombre': 'Norte'}",EL REDIL,EL REDIL,156089.0,I GAMA SAS,Usado,"{'lon': -74.02733, 'lat': 4.749291}",https://www.metrocuadrado.com/inmueble/venta-apartamento-bogota-el-redil-1-habitaciones-1-banos/19258-M6749275,Remodelado,4,2026-06-11
21845-M6567592,"{'id': '1', 'nombre': 'Apartamento'}",360000000,38.0,38.0,1,1,1,"{'id': '1', 'nombre': 'Bogotá D.C.'}","{'id': '1', 'nombre': 'Norte'}",SANTA BIBIANA,CHICO NAVARRA,410000.0,Diana Trujillo,Usado,"{'lon': -74.05475, 'lat': 4.6931186}",https://www.metrocuadrado.com/inmueble/venta-apartamento-bogota-santa-bibiana-1-habitaciones-1-banos-1-garajes/21845-M6567592,Más de 20 años,6,2026-06-11
3553-M6233322,"{'id': '1', 'nombre': 'Apartamento'}",455000000,27.0,27.0,1,1,1,"{'id': '1', 'nombre': 'Bogotá D.C.'}","{'id': '1', 'nombre': 'Norte'}",CHICO NORTE ET III,CHICO NORTE III,500000.0,Bulevar Inmobiliario,Usado,"{'lon': -74.05427, 'lat': 4.6824865}",https://www.metrocuadrado.com/inmueble/venta-apartamento-bogota-chico-norte-et-iii-1-habitaciones-1-banos-1-garajes/3553-M6233322,Entre 0 y 5 años,6,2026-06-11
21242-M6490530,"{'id': '14', 'nombre': 'Apartaestudio'}",270000000,23.16,23.16,1,1,0,"{'id': '1', 'nombre': 'Bogotá D.C.'}","{'id': '3', 'nombre': 'Noroccidente'}",LA CASTELLANA,CASTELLANA,300000.0,ECOINCLUSIVA SAS,Usado,"{'lon': -74.058716, 'lat': 4.6831174}",https://www.metrocuadrado.com/inmueble/venta-apartaestudio-bogota-la-castellana-1-habitaciones-1-banos/21242-M6490530,Entre 0 y 5 años,5,2026-06-11
22189-M6451451,"{'id': '1', 'nombre': 'Apartamento'}",790000000,52.61,52.61,1,1,1,"{'id': '1', 'nombre': 'Bogotá D.C.'}","{'id': '1', 'nombre': 'Norte'}",CHICO NORTE ET  III,Chico,476393.0,GARZA PRODUCCIONES SAS,Usado,"{'lon': -74.05285, 'lat': 4.684222}",https://www.metrocuadrado.com/inmueble/venta-apartamento-bogota-chico-norte-et.-iii-1-habitaciones-1-banos-1-garajes/22189-M6451451,Entre 0 y 5 años,6,2026-06-11
4186-M6025607,"{'id': '14', 'nombre': 'Apartaestudio'}",320000000,20.0,20.0,1,1,0,"{'id': '1', 'nombre': 'Bogotá D.C.'}","{'id': '1', 'nombre': 'Norte'}",CHICO NORTE,CHICO NORTE,250000.0,CITTA GESTION INMOBILIARIA,Usado,"{'lon': -74.05299, 'lat': 4.679831}",https://www.metrocuadrado.com/inmueble/venta-apartaestudio-bogota-chico-norte-1-habitaciones-1-banos/4186-M6025607,Entre 0 y 5 años,6,2026-06-11
20690-M6668555,"{'id': '14', 'nombre': 'Apartaestudio'}",420000000,39.0,39.0,1,1,0,"{'id': '1', 'nombre': 'Bogotá D.C.'}","{'id': '5', 'nombre': 'Centro'}",SANTA ANA OCCIDENTAL,CENTRO INTERNACIONAL BAVARIA,290000.0,Profesionales inmobiliarios,Usado,"{'lon': -74.03578, 'lat': 4.6858277}",https://www.metrocuadrado.com/inmueble/venta-apartaestudio-bogota-santa-ana-occidental-1-habitaciones-1-banos/20690-M6668555,Entre 0 y 5 años,3,2026-06-11
