propertyId,propertyType,salePrice,area,areac,rooms,bathrooms,garages,city,zone,neighborhood,commonNeighborhood,adminPrice,companyName,propertyState,coordinates,link,builtTime,stratum,Extraction Date
16120-M5637391,"{'id': '1', 'nombre': 'Apartamento'}",850000000,88.94,88.94,1,2,1,"{'id': '3', 'nombre': 'Medellín'}","{'id': '38', 'nombre': 'Suroriente'}",ALEJANDRIA,Alejandria,848000.0,LIVIN INMOBILIARIA S.A.S.,Usado,"{'lon': -75.56742, 'lat': 6.20075}",https://www.metrocuadrado.com/inmueble/venta-apartamento-medellin-alejandria-1-habitaciones-2-banos-1-garajes/16120-M5637391,Entre 10 y 20 años,6,2025-07-17
5606-M5672282,"{'id': '14', 'nombre': 'Apartaestudio'}",420000000,46.0,46.0,1,1,1,"{'id': '3', 'nombre': 'Medellín'}","{'id': '36', 'nombre': 'Nororiente'}",ASOMADERA NO 2,El Poblado Loma Del Indio,,CONALTURA INMOBILIARIA,Usado,"{'lon': -75.56105, 'lat': 6.22546}",https://www.metrocuadrado.com/inmueble/venta-apartaestudio-medellin-asomadera-no.2-1-habitaciones-1-banos-1-garajes/5606-M5672282,Entre 5 y 10 años,4,2025-07-17
MC5939681,"{'id': '1', 'nombre': 'Apartamento'}",385000000,27.79,27.79,1,1,1,"{'id': '3', 'nombre': 'Medellín'}","{'id': '38', 'nombre': 'Suroriente'}",EL DIAMANTE NO 2,EL POBLADO   Nororiente,271370.0,,Usado,"{'lon': -75.57718, 'lat': 6.183838}",https://www.metrocuadrado.com/inmueble/venta-apartamento-medellin-el-diamante-no.2-1-habitaciones-1-banos-1-garajes/MC5939681,Entre 5 y 10 años,6,2025-07-17
687-M5387086,"{'id': '1', 'nombre': 'Apartamento'}",690000000,65.0,65.0,1,2,1,"{'id': '3', 'nombre': 'Medellín'}","{'id': '38', 'nombre': 'Suroriente'}",SAN LUCAS,EL POBLADO,513000.0,PROINTEGRAL SA,Usado,"{'lon': -75.564, 'lat': 6.179964}",https://www.metrocuadrado.com/inmueble/venta-apartamento-medellin-san-lucas-1-habitaciones-2-banos-1-garajes/687-M5387086,Entre 5 y 10 años,6,2025-07-17
687-M5649345,"{'id': '1', 'nombre': 'Apartamento'}",595000000,70.0,70.0,1,2,1,"{'id': '3', 'nombre': 'Medellín'}","{'id': '38', 'nombre': 'Suroriente'}",SIMESA,poblado,290000.0,PROINTEGRAL SA,Usado,"{'lon': -75.57452, 'lat': 6.2240005}",https://www.metrocuadrado.com/inmueble/venta-apartamento-medellin-simesa-1-habitaciones-2-banos-1-garajes/687-M5649345,Entre 5 y 10 años,6,2025-07-17
13297-M5807997,"{'id': '1', 'nombre': 'Apartamento'}",900000000,90.0,90.0,1,2,2,"{'id': '3', 'nombre': 'Medellín'}","{'id': '102', 'nombre': 'Otros'}",,EL POBLADO LAS PALMAS,720000.0,BIENES Y AUTOS .COM,Usado,"{'lon': -75.544395, 'lat': 6.2013063}",https://www.metrocuadrado.com/inmueble/venta-apartamento-medellin-1-habitaciones-2-banos-2-garajes/13297-M5807997,Entre 5 y 10 años,6,2025-07-17
687-M5041304,"{'id': '1', 'nombre': 'Apartamento'}",1030000000,88.0,88.0,1,2,2,"{'id': '3', 'nombre': 'Medellín'}","{'id': '38', 'nombre': 'Suroriente'}",LOS BALSOS NO 1,EL POBLADO,666000.0,PROINTEGRAL SA,Usado,"{'lon': -75.55973, 'lat': 6.1919775}",https://www.metrocuadrado.com/inmueble/venta-apartamento-medellin-los-balsos-no.1-1-habitaciones-2-banos-2-garajes/687-M5041304,Entre 10 y 20 años,6,2025-07-17
