propertyId,propertyType,salePrice,area,areac,rooms,bathrooms,garages,city,zone,neighborhood,commonNeighborhood,adminPrice,companyName,propertyState,coordinates,link,builtTime,stratum,Extraction Date
12095-M5672740,"{'id': '1', 'nombre': 'Apartamento'}",645000000,62.0,62.0,1,2,2,"{'id': '1', 'nombre': 'Bogotá D.C.'}",,SANTA BARBARA,Santa Barbara,680000.0,VICUS TIENDA INMOBILIARIA,Usado,"{'lon': -74.03657, 'lat': 4.693158}",https://www.metrocuadrado.com/inmueble/venta-apartamento-bogota-santa-barbara-1-habitaciones-2-banos-2-garajes/12095-M5672740,Entre 5 y 10 años,6,2025-11-21
16634-M6109646,"{'id': '1', 'nombre': 'Apartamento'}",340000000,46.0,46.0,1,1,1,"{'id': '1', 'nombre': 'Bogotá D.C.'}","{'id': '3', 'nombre': 'Noroccidente'}",ESTORIL,PUENTE LARGO PASADENA,336000.0,GRUPO COMFY,Usado,"{'lon': -74.060265, 'lat': 4.6946745}",https://www.metrocuadrado.com/inmueble/venta-apartamento-bogota-estoril-1-habitaciones-1-banos-1-garajes/16634-M6109646,Entre 10 y 20 años,5,2025-11-21
MC6156011,"{'id': '1', 'nombre': 'Apartamento'}",239000000,32.0,31.0,1,1,0,"{'id': '1', 'nombre': 'Bogotá D.C.'}","{'id': '5', 'nombre': 'Centro'}",SANTA BARBARA,LA CANDELARIA CENTRO   Centro y Zona Colonial,,,Usado,"{'lon': -74.07458, 'lat': 4.592236}",https://www.metrocuadrado.com/inmueble/venta-apartamento-bogota-santa-barbara-1-habitaciones-1-banos/MC6156011,Entre 0 y 5 años,2,2025-11-21
4186-M6097612,"{'id': '1', 'nombre': 'Apartamento'}",285000000,26.0,26.0,1,1,0,"{'id': '1', 'nombre': 'Bogotá D.C.'}",,CENTRO INTERNACIONAL,Centro Internacional,230000.0,CITTA GESTION INMOBILIARIA,Usado,"{'lon': -74.067, 'lat': 4.61937}",https://www.metrocuadrado.com/inmueble/venta-apartamento-bogota-centro-internacional-1-habitaciones-1-banos/4186-M6097612,Entre 0 y 5 años,3,2025-11-21
15062-M6108215,"{'id': '14', 'nombre': 'Apartaestudio'}",269000000,26.0,30.0,1,1,0,"{'id': '1', 'nombre': 'Bogotá D.C.'}",,CIUDAD SALITRE OCCIDENTE,Ciudad Salitre Occidente,110000.0,ACSI AGENCIA INMOBILIARIA,Usado,"{'lon': -74.08476, 'lat': 4.668742}",https://www.metrocuadrado.com/inmueble/venta-apartaestudio-bogota-ciudad-salitre-occidente-1-habitaciones-1-banos/15062-M6108215,Entre 0 y 5 años,4,2025-11-21
MC6138282,"{'id': '14', 'nombre': 'Apartaestudio'}",360000000,49.0,49.0,1,2,1,"{'id': '1', 'nombre': 'Bogotá D.C.'}","{'id': '1', 'nombre': 'Norte'}",BELLA SUIZA   EDIF BOSQUES DE BELLA SUIZA,bella suiza ginebra   Country,364000.0,,Usado,"{'lon': -74.03126, 'lat': 4.706761}",https://www.metrocuadrado.com/inmueble/venta-apartaestudio-bogota-bella-suiza-edif-bosques-de-bella-suiza-1-habitaciones-2-banos-1-garajes/MC6138282,Entre 10 y 20 años,5,2025-11-21
MC6156991,"{'id': '1', 'nombre': 'Apartamento'}",300000000,30.0,30.0,1,1,0,"{'id': '1', 'nombre': 'Bogotá D.C.'}","{'id': '5', 'nombre': 'Centro'}",NUEVA SANTA FE,NUEVA SANTA FE   Centro y Zona Colonial,,,Usado,"{'lon': -74.07516, 'lat': 4.592621}",https://www.metrocuadrado.com/inmueble/venta-apartamento-bogota-nueva-santa-fe-1-habitaciones-1-banos/MC6156991,Entre 0 y 5 años,2,2025-11-21
17140-M6121816,"{'id': '1', 'nombre': 'Apartamento'}",1145584000,75.11,75.11,1,2,1,"{'id': '1', 'nombre': 'Bogotá D.C.'}","{'id': '1', 'nombre': 'Norte'}",ANTIGUO COUNTRY,VIRREY ANTIGUO,0.0,BRICKERS,Usado,"{'lon': -74.05543, 'lat': 4.6717186}",https://www.metrocuadrado.com/inmueble/venta-apartamento-bogota-antiguo-country-1-habitaciones-2-banos-1-garajes/17140-M6121816,Entre 0 y 5 años,6,2025-11-21
20134-M6084230,"{'id': '1', 'nombre': 'Apartamento'}",235000000,33.0,33.0,1,1,1,"{'id': '1', 'nombre': 'Bogotá D.C.'}","{'id': '4', 'nombre': 'Occidental'}",PRIMAVERA OCCIDENTAL,PUENTE ARANDA,134070.0,DEYCI MARIA ALVAREZ HERNANDEZ,Usado,"{'lon': -74.107765, 'lat': 4.61436}",https://www.metrocuadrado.com/inmueble/venta-apartamento-bogota-primavera-occidental-1-habitaciones-1-banos-1-garajes/20134-M6084230,Entre 0 y 5 años,3,2025-11-21
MC6093339,"{'id': '1', 'nombre': 'Apartamento'}",575000000,54.64,57.76,1,2,1,"{'id': '1', 'nombre': 'Bogotá D.C.'}","{'id': '2', 'nombre': 'Chapinero'}",BOSQUE CALDERON,BOSQUE CALDERON   Chapinero Alto,448400.0,,Usado,"{'lon': -74.0601, 'lat': 4.6421747}",https://www.metrocuadrado.com/inmueble/venta-apartamento-bogota-bosque-calderon-1-habitaciones-2-banos-1-garajes/MC6093339,Entre 5 y 10 años,4,2025-11-21
21211-M6114693,"{'id': '1', 'nombre': 'Apartamento'}",506000000,67.0,67.0,1,2,1,"{'id': '1', 'nombre': 'Bogotá D.C.'}","{'id': '1', 'nombre': 'Norte'}",ANTIGUO COUNTRY,antiguo country   virrey,562000.0,NOVAINVESA,Usado,"{'lon': -74.05881, 'lat': 4.672691}",https://www.metrocuadrado.com/inmueble/venta-apartamento-bogota-antiguo-country-1-habitaciones-2-banos-1-garajes/21211-M6114693,Más de 20 años,3,2025-11-21
MC5360554,"{'id': '1', 'nombre': 'Apartamento'}",224000000,33.0,33.0,1,1,0,"{'id': '1', 'nombre': 'Bogotá D.C.'}","{'id': '3', 'nombre': 'Noroccidente'}",CJR PORTALES DEL PRADO,TIERRA LINDA   Niza Alhambra,160000.0,,Usado,"{'lon': -74.056305, 'lat': 4.7126045}",https://www.metrocuadrado.com/inmueble/venta-apartamento-bogota-cjr-portales-del-prado-1-habitaciones-1-banos/MC5360554,Más de 20 años,3,2025-11-21
5340-M5402678,"{'id': '1', 'nombre': 'Apartamento'}",725000000,101.0,101.0,1,3,2,"{'id': '1', 'nombre': 'Bogotá D.C.'}","{'id': '1', 'nombre': 'Norte'}",A S D ,Bosque De Pinos,820000.0,Bon Habitat SAS,Usado,"{'lon': -74.022705, 'lat': 4.7306676}",https://www.metrocuadrado.com/inmueble/venta-apartamento-bogota-a.s.d.-1-habitaciones-3-banos-2-garajes/5340-M5402678,Entre 0 y 5 años,5,2025-11-21
20942-M6157820,"{'id': '14', 'nombre': 'Apartaestudio'}",200000000,18.0,18.0,1,1,0,"{'id': '1', 'nombre': 'Bogotá D.C.'}","{'id': '2', 'nombre': 'Chapinero'}",CHAPINERO CENTRAL,CHAPINERO,226300.0,Luxe Real Estate- Maria Montes,Usado,"{'lon': -74.06253, 'lat': 4.646187}",https://www.metrocuadrado.com/inmueble/venta-apartaestudio-bogota-chapinero-central-1-habitaciones-1-banos/20942-M6157820,Entre 0 y 5 años,3,2025-11-21
20706-M6112293,"{'id': '1', 'nombre': 'Apartamento'}",222000000,37.0,37.0,1,1,0,"{'id': '1', 'nombre': 'Bogotá D.C.'}","{'id': '4', 'nombre': 'Occidental'}",NA,Kennedy,152300.0,STAY HOME INMOBILIARIA,Usado,"{'lon': -74.13516, 'lat': 4.6474586}",https://www.metrocuadrado.com/inmueble/venta-apartamento-bogota-na-1-habitaciones-1-banos/20706-M6112293,Entre 0 y 5 años,3,2025-11-21
20706-M6108895,"{'id': '1', 'nombre': 'Apartamento'}",250000000,27.0,27.0,1,1,0,"{'id': '1', 'nombre': 'Bogotá D.C.'}","{'id': '2', 'nombre': 'Chapinero'}",LOS OLIVOS,Los Olivos,270000.0,STAY HOME INMOBILIARIA,Usado,"{'lon': -74.05478, 'lat': 4.6444407}",https://www.metrocuadrado.com/inmueble/venta-apartamento-bogota-los-olivos-1-habitaciones-1-banos/20706-M6108895,Entre 0 y 5 años,4,2025-11-21
