propertyId,propertyType,salePrice,area,areac,rooms,bathrooms,garages,city,zone,neighborhood,commonNeighborhood,adminPrice,companyName,propertyState,coordinates,link,builtTime,stratum,Extraction Date
2266-M5776069,"{'id': '14', 'nombre': 'Apartaestudio'}",275000000,21.0,21.0,1,1,0,"{'id': '1', 'nombre': 'Bogotá D.C.'}","{'id': '1', 'nombre': 'Norte'}",CHICO NORTE ET  III,Chico,330000.0,Boutique de Bienes Raices,Usado,"{'lon': -74.05714, 'lat': 4.6842384}",https://www.metrocuadrado.com/inmueble/venta-apartaestudio-bogota-chico-norte-et.-iii-1-habitaciones-1-banos/2266-M5776069,Entre 0 y 5 años,6,2025-08-16
897-M5549786,"{'id': '14', 'nombre': 'Apartaestudio'}",480000000,57.6,57.6,1,2,1,"{'id': '1', 'nombre': 'Bogotá D.C.'}",,SAN PATRICIO,San Patricio,784000.0,L2L BIENES RAÍCES SAS,Usado,"{'lon': -74.0474, 'lat': 4.69322}",https://www.metrocuadrado.com/inmueble/venta-apartaestudio-bogota-san-patricio-1-habitaciones-2-banos-1-garajes/897-M5549786,Entre 0 y 5 años,6,2025-08-16
MC4916252,"{'id': '1', 'nombre': 'Apartamento'}",326000000,33.0,33.0,1,1,1,"{'id': '1', 'nombre': 'Bogotá D.C.'}","{'id': '1', 'nombre': 'Norte'}",SANTA ANA OCCIDENTAL,SANTA ANA OCCIDENTAL   Chicó,0.0,,Usado,"{'lon': -74.03431, 'lat': 4.6919594}",https://www.metrocuadrado.com/inmueble/venta-apartamento-bogota-santa-ana-occidental-1-habitaciones-1-banos-1-garajes/MC4916252,Remodelado,6,2025-08-16
MC5967938,"{'id': '1', 'nombre': 'Apartamento'}",520000000,65.6,65.6,1,1,1,"{'id': '1', 'nombre': 'Bogotá D.C.'}","{'id': '1', 'nombre': 'Norte'}",BELLAVISTA,LOS ROSALES   Chicó,700000.0,,Usado,"{'lon': -74.05196, 'lat': 4.6561055}",https://www.metrocuadrado.com/inmueble/venta-apartamento-bogota-bellavista-1-habitaciones-1-banos-1-garajes/MC5967938,Más de 20 años,6,2025-08-16
MC5985346,"{'id': '1', 'nombre': 'Apartamento'}",225000000,15.57,17.97,1,1,0,"{'id': '1', 'nombre': 'Bogotá D.C.'}","{'id': '2', 'nombre': 'Chapinero'}",CJR URBAN 9 60,CHAPINERO CENTRAL   Chicó,225000.0,,Usado,"{'lon': -74.06254, 'lat': 4.6461678}",https://www.metrocuadrado.com/inmueble/venta-apartamento-bogota-cjr-urban-9-60-1-habitaciones-1-banos/MC5985346,Entre 0 y 5 años,3,2025-08-16
MC5818119,"{'id': '14', 'nombre': 'Apartaestudio'}",280000000,27.4,30.5,1,1,1,"{'id': '1', 'nombre': 'Bogotá D.C.'}","{'id': '2', 'nombre': 'Chapinero'}",LOS OLIVOS,CHAPINERO ALTO  ,323100.0,,Usado,"{'lon': -74.05414, 'lat': 4.6441975}",https://www.metrocuadrado.com/inmueble/venta-apartaestudio-bogota-los-olivos-1-habitaciones-1-banos-1-garajes/MC5818119,Entre 0 y 5 años,4,2025-08-16
20744-M5985177,"{'id': '14', 'nombre': 'Apartaestudio'}",230000000,18.0,18.0,1,1,1,"{'id': '1', 'nombre': 'Bogotá D.C.'}","{'id': '102', 'nombre': 'Otros'}",CHAPINERO CENTRAL,CHAPINERO CENTRAL,230000.0,LEOCARBAR,Usado,"{'lon': -74.06208, 'lat': 4.6458297}",https://www.metrocuadrado.com/inmueble/venta-apartaestudio-bogota-chapinero-central-1-habitaciones-1-banos-1-garajes/20744-M5985177,Entre 10 y 20 años,3,2025-08-16
MC5993186,"{'id': '1', 'nombre': 'Apartamento'}",400000000,46.0,46.0,1,2,1,"{'id': '1', 'nombre': 'Bogotá D.C.'}","{'id': '1', 'nombre': 'Norte'}",LAS ACASIAS,CEDRITOS   Chicó,410000.0,,Usado,"{'lon': -74.03219, 'lat': 4.7229953}",https://www.metrocuadrado.com/inmueble/venta-apartamento-bogota-las-acasias-1-habitaciones-2-banos-1-garajes/MC5993186,Entre 5 y 10 años,5,2025-08-16
MC5993925,"{'id': '14', 'nombre': 'Apartaestudio'}",260000000,27.9,30.0,1,1,1,"{'id': '1', 'nombre': 'Bogotá D.C.'}","{'id': '3', 'nombre': 'Noroccidente'}",PASADENA,PASADENA   Niza Alhambra,265000.0,,Usado,"{'lon': -74.06159, 'lat': 4.689621}",https://www.metrocuadrado.com/inmueble/venta-apartaestudio-bogota-pasadena-1-habitaciones-1-banos-1-garajes/MC5993925,Entre 0 y 5 años,5,2025-08-16
MC5634079,"{'id': '1', 'nombre': 'Apartamento'}",400000000,41.17,45.58,1,2,1,"{'id': '1', 'nombre': 'Bogotá D.C.'}","{'id': '5', 'nombre': 'Centro'}",BOSQUE IZQUIERDO,BOSQUE IZQUIERDO   Centro Internacional,380000.0,,Usado,"{'lon': -74.06597, 'lat': 4.610426}",https://www.metrocuadrado.com/inmueble/venta-apartamento-bogota-bosque-izquierdo-1-habitaciones-2-banos-1-garajes/MC5634079,Entre 5 y 10 años,4,2025-08-16
MC5988586,"{'id': '1', 'nombre': 'Apartamento'}",440000000,52.0,52.0,1,1,1,"{'id': '1', 'nombre': 'Bogotá D.C.'}","{'id': '2', 'nombre': 'Chapinero'}",LA SALLE   EDIF TORRE LA SALLE VERDE,CHAPINERO   Chapinero Alto,540000.0,,Usado,"{'lon': -74.056526, 'lat': 4.6439085}",https://www.metrocuadrado.com/inmueble/venta-apartamento-bogota-la-salle-edif-torre-la-salle-verde-1-habitaciones-1-banos-1-garajes/MC5988586,Entre 5 y 10 años,4,2025-08-16
19579-M5661669,"{'id': '14', 'nombre': 'Apartaestudio'}",453600000,31.46,40.05,1,1,1,"{'id': '1', 'nombre': 'Bogotá D.C.'}","{'id': '1', 'nombre': 'Norte'}",CJR ENTORNO 118,Santa Barbara,,KVEINTIUNO,Usado,"{'lon': -74.043976, 'lat': 4.6979933}",https://www.metrocuadrado.com/inmueble/venta-apartaestudio-bogota-cjr-entorno-118-1-habitaciones-1-banos-1-garajes/19579-M5661669,Entre 0 y 5 años,6,2025-08-16
920-M5652201,"{'id': '1', 'nombre': 'Apartamento'}",710000000,70.0,70.0,1,2,1,"{'id': '1', 'nombre': 'Bogotá D.C.'}","{'id': '1', 'nombre': 'Norte'}",CHICO NORTE ET  II,Chico Reservado,529000.0,RENTKASA,Usado,"{'lon': -74.04049, 'lat': 4.6789}",https://www.metrocuadrado.com/inmueble/venta-apartamento-bogota-chico-norte-et.-ii-1-habitaciones-2-banos-1-garajes/920-M5652201,Más de 20 años,6,2025-08-16
19579-M5940127,"{'id': '1', 'nombre': 'Apartamento'}",1600000000,132.0,155.0,1,2,2,"{'id': '1', 'nombre': 'Bogotá D.C.'}",,CHICO,Chico,1800000.0,KVEINTIUNO,Usado,"{'lon': -74.055565, 'lat': 4.6777077}",https://www.metrocuadrado.com/inmueble/venta-apartamento-bogota-chico-1-habitaciones-2-banos-2-garajes/19579-M5940127,Entre 0 y 5 años,6,2025-08-16
5545-M5764422,"{'id': '1', 'nombre': 'Apartamento'}",440000000,35.0,35.0,1,1,1,"{'id': '1', 'nombre': 'Bogotá D.C.'}","{'id': '1', 'nombre': 'Norte'}",CJR CASA CHICO,CHICO NORTE,400000.0,Colombiainsider SAS,Usado,"{'lon': -74.054794, 'lat': 4.6828947}",https://www.metrocuadrado.com/inmueble/venta-apartamento-bogota-cjr-casa-chico-1-habitaciones-1-banos-1-garajes/5545-M5764422,Entre 5 y 10 años,6,2025-08-16
19711-M5707962,"{'id': '1', 'nombre': 'Apartamento'}",571146000,58.72,58.72,1,1,2,"{'id': '1', 'nombre': 'Bogotá D.C.'}",,NIZA,Niza,364000.0,INMOBILIARIA + INVERSIONES PIBU SAS,Usado,"{'lon': 0, 'lat': 0}",https://www.metrocuadrado.com/inmueble/venta-apartamento-bogota-niza-1-habitaciones-1-banos-2-garajes/19711-M5707962,Entre 0 y 5 años,5,2025-08-16
