propertyId,propertyType,salePrice,area,areac,rooms,bathrooms,garages,city,zone,neighborhood,commonNeighborhood,adminPrice,companyName,propertyState,coordinates,link,builtTime,stratum,Extraction Date
17245-M6051944,"{'id': '14', 'nombre': 'Apartaestudio'}",485000000,62.0,62.0,1,2,2,"{'id': '1', 'nombre': 'Bogotá D.C.'}",,CHICO NAVARRA,Chico Navarra,780000,Hus Inmobiliaria,Usado,"{'lon': -74.04947, 'lat': 4.68768}",https://www.metrocuadrado.com/inmueble/venta-apartaestudio-bogota-chico-navarra-1-habitaciones-2-banos-2-garajes/17245-M6051944,Entre 10 y 20 años,6,2025-11-01
20179-M6001673,"{'id': '14', 'nombre': 'Apartaestudio'}",224500000,39.18,43.35,1,1,0,"{'id': '1', 'nombre': 'Bogotá D.C.'}",,JORGE ELIECER GAITAN,Jorge Eliecer Gaitan,40000,DL PROYECTOS INMOBILIARIOS,Usado,"{'lon': -74.07199, 'lat': 4.6745157}",https://www.metrocuadrado.com/inmueble/venta-apartaestudio-bogota-jorge-eliecer-gaitan-1-habitaciones-1-banos/20179-M6001673,Entre 0 y 5 años,3,2025-11-01
MC6128237,"{'id': '1', 'nombre': 'Apartamento'}",280000000,39.0,40.0,1,1,0,"{'id': '1', 'nombre': 'Bogotá D.C.'}","{'id': '2', 'nombre': 'Chapinero'}",BOSQUE CALDERON   EDIF YUPANKI,CHAPINERO ALTO BOSQUE CALDERON   Chapinero Alto,240000,,Usado,"{'lon': -74.06208, 'lat': 4.641871}",https://www.metrocuadrado.com/inmueble/venta-apartamento-bogota-bosque-calderon-edif-yupanki-1-habitaciones-1-banos/MC6128237,Remodelado,4,2025-11-01
MC5117761,"{'id': '1', 'nombre': 'Apartamento'}",330000000,42.71,47.29,1,2,1,"{'id': '1', 'nombre': 'Bogotá D.C.'}","{'id': '3', 'nombre': 'Noroccidente'}",EL BATAN,EL BATAN   Chicó,276204,,Usado,"{'lon': -74.0593, 'lat': 4.7042427}",https://www.metrocuadrado.com/inmueble/venta-apartamento-bogota-el-batan-1-habitaciones-2-banos-1-garajes/MC5117761,Más de 20 años,6,2025-11-01
MC6126108,"{'id': '14', 'nombre': 'Apartaestudio'}",340000000,32.0,32.0,1,1,0,"{'id': '1', 'nombre': 'Bogotá D.C.'}","{'id': '5', 'nombre': 'Centro'}",SAN MARTIN,SAN MARTIN CENTRO   Centro y Zona Colonial,170000,,Usado,"{'lon': -74.06656, 'lat': 4.6178226}",https://www.metrocuadrado.com/inmueble/venta-apartaestudio-bogota-san-martin-1-habitaciones-1-banos/MC6126108,Entre 0 y 5 años,3,2025-11-01
MC6122061,"{'id': '1', 'nombre': 'Apartamento'}",270000000,50.0,50.0,1,1,1,"{'id': '1', 'nombre': 'Bogotá D.C.'}","{'id': '1', 'nombre': 'Norte'}",SAN GABRIEL NORTE,ALTOS DE BELLA SUIZA   Zona Urbana,320000,,Usado,"{'lon': -74.02581, 'lat': 4.704885}",https://www.metrocuadrado.com/inmueble/venta-apartamento-bogota-san-gabriel-norte-1-habitaciones-1-banos-1-garajes/MC6122061,Más de 20 años,4,2025-11-01
21365-M6119941,"{'id': '1', 'nombre': 'Apartamento'}",285900000,40.0,40.0,1,1,1,"{'id': '1', 'nombre': 'Bogotá D.C.'}","{'id': '3', 'nombre': 'Noroccidente'}",SAN CIPRIANO,BRITALIA,300000,MAFE HOME,Usado,"{'lon': -74.04962, 'lat': 4.7459803}",https://www.metrocuadrado.com/inmueble/venta-apartamento-bogota-san-cipriano-1-habitaciones-1-banos-1-garajes/21365-M6119941,Entre 10 y 20 años,3,2025-11-01
20363-M6066640,"{'id': '14', 'nombre': 'Apartaestudio'}",217500000,31.0,31.0,1,1,0,"{'id': '1', 'nombre': 'Bogotá D.C.'}","{'id': '2', 'nombre': 'Chapinero'}",CHAPINERO SUR OCCIDENTAL,CHAPINERO SUR OCCIDENTAL,292900,Diego Muñoz,Usado,"{'lon': -74.06596, 'lat': 4.6435046}",https://www.metrocuadrado.com/inmueble/venta-apartaestudio-bogota-chapinero-sur-occidental-1-habitaciones-1-banos/20363-M6066640,Entre 10 y 20 años,3,2025-11-01
20134-M6084230,"{'id': '1', 'nombre': 'Apartamento'}",235000000,33.0,33.0,1,1,1,"{'id': '1', 'nombre': 'Bogotá D.C.'}","{'id': '4', 'nombre': 'Occidental'}",PRIMAVERA OCCIDENTAL,PUENTE ARANDA,134070,DEYCI MARIA ALVAREZ HERNANDEZ,Usado,"{'lon': -74.107765, 'lat': 4.61436}",https://www.metrocuadrado.com/inmueble/venta-apartamento-bogota-primavera-occidental-1-habitaciones-1-banos-1-garajes/20134-M6084230,Entre 0 y 5 años,3,2025-11-01
15955-M6054238,"{'id': '1', 'nombre': 'Apartamento'}",345000000,38.0,38.0,1,1,1,"{'id': '1', 'nombre': 'Bogotá D.C.'}","{'id': '1', 'nombre': 'Norte'}",LOS CEDRITOS,CEDRITOS,324000,INNOVAR Y ASESORIAS,Usado,"{'lon': -74.04275, 'lat': 4.7279844}",https://www.metrocuadrado.com/inmueble/venta-apartamento-bogota-los-cedritos-1-habitaciones-1-banos-1-garajes/15955-M6054238,Entre 10 y 20 años,4,2025-11-01
15955-M6115098,"{'id': '1', 'nombre': 'Apartamento'}",430000000,55.0,55.0,1,2,1,"{'id': '1', 'nombre': 'Bogotá D.C.'}","{'id': '1', 'nombre': 'Norte'}",CEDRITOS,CEDRITOS,300000,INNOVAR Y ASESORIAS,Usado,"{'lon': -74.039505, 'lat': 4.722804}",https://www.metrocuadrado.com/inmueble/venta-apartamento-bogota-cedritos-1-habitaciones-2-banos-1-garajes/15955-M6115098,Entre 5 y 10 años,4,2025-11-01
20236-M6108737,"{'id': '14', 'nombre': 'Apartaestudio'}",260000000000,27.0,27.0,1,1,0,"{'id': '1', 'nombre': 'Bogotá D.C.'}","{'id': '4', 'nombre': 'Occidental'}",,SAN FERNANDO,0,Yolanda González,Usado,"{'lon': -74.078125, 'lat': 4.6755023}",https://www.metrocuadrado.com/inmueble/venta-apartaestudio-bogota-1-habitaciones-1-banos/20236-M6108737,Entre 0 y 5 años,3,2025-11-01
16939-M6012671,"{'id': '14', 'nombre': 'Apartaestudio'}",290000000,25.0,25.0,1,1,0,"{'id': '1', 'nombre': 'Bogotá D.C.'}",,QUINTA PAREDES,Quinta Paredes,160000,IDEAS Y DESARROLLOS  INMOBILIARIOS MG SAS,Usado,"{'lon': -74.090706, 'lat': 4.6422763}",https://www.metrocuadrado.com/inmueble/venta-apartaestudio-bogota-quinta-paredes-1-habitaciones-1-banos/16939-M6012671,Entre 0 y 5 años,4,2025-11-01
MC6033277,"{'id': '1', 'nombre': 'Apartamento'}",240000000,32.9,33.0,1,1,0,"{'id': '1', 'nombre': 'Bogotá D.C.'}","{'id': '2', 'nombre': 'Chapinero'}",ALFONSO LOPEZ   EDIF KALBALI,GALERIAS   Chapinero,166000,,Usado,"{'lon': -74.07679, 'lat': 4.6406927}",https://www.metrocuadrado.com/inmueble/venta-apartamento-bogota-alfonso-lopez-edif-kalbali-1-habitaciones-1-banos/MC6033277,Entre 5 y 10 años,4,2025-11-01
MC6122405,"{'id': '1', 'nombre': 'Apartamento'}",350000000,45.0,49.0,1,1,0,"{'id': '1', 'nombre': 'Bogotá D.C.'}","{'id': '2', 'nombre': 'Chapinero'}",PALERMO   EDIF ZEQUISCUA,PALERMO   Chapinero,170000,,Usado,"{'lon': -74.06989, 'lat': 4.633395}",https://www.metrocuadrado.com/inmueble/venta-apartamento-bogota-palermo-edif-zequiscua-1-habitaciones-1-banos/MC6122405,Más de 20 años,4,2025-11-01
