propertyId,propertyType,salePrice,area,areac,rooms,bathrooms,garages,city,zone,neighborhood,commonNeighborhood,adminPrice,companyName,propertyState,coordinates,link,builtTime,stratum,Extraction Date
21838-M6343430,"{'id': '1', 'nombre': 'Apartamento'}",400000000,58.0,58.0,1,2,1,"{'id': '1', 'nombre': 'Bogotá D.C.'}","{'id': '1', 'nombre': 'Norte'}",EL CONTADOR,CEDRITOS CONTADOR,490000.0,MSO INMOBILIARIA SAS,Usado,"{'lon': -74.04599, 'lat': 4.719012}",https://www.metrocuadrado.com/inmueble/venta-apartamento-bogota-el-contador-1-habitaciones-2-banos-1-garajes/21838-M6343430,Entre 10 y 20 años,5,2026-02-05
4186-M6161755,"{'id': '1', 'nombre': 'Apartamento'}",425000000,43.0,43.0,1,2,1,"{'id': '1', 'nombre': 'Bogotá D.C.'}",,CENTRO INTERNACIONAL,Centro Internacional,,CITTA GESTION INMOBILIARIA,Usado,"{'lon': -74.067, 'lat': 4.61937}",https://www.metrocuadrado.com/inmueble/venta-apartamento-bogota-centro-internacional-1-habitaciones-2-banos-1-garajes/4186-M6161755,Entre 5 y 10 años,4,2026-02-05
3312-M3327778,"{'id': '1', 'nombre': 'Apartamento'}",420000000,54.0,54.0,1,2,0,"{'id': '1', 'nombre': 'Bogotá D.C.'}","{'id': '2', 'nombre': 'Chapinero'}",SUCRE,CHAPINERO JAVERIANA,360000.0,VIVIENDA ACTUAL,Usado,"{'lon': -74.0653, 'lat': 4.6304064}",https://www.metrocuadrado.com/inmueble/venta-apartamento-bogota-sucre-1-habitaciones-2-banos/3312-M3327778,Entre 10 y 20 años,4,2026-02-05
MC6182719,"{'id': '1', 'nombre': 'Apartamento'}",369000000,27.0,29.0,1,1,1,"{'id': '1', 'nombre': 'Bogotá D.C.'}","{'id': '1', 'nombre': 'Norte'}",CHICO NORTE ET  III,CHICO NORTE III   Zona Urbana,330000.0,,Usado,"{'lon': -74.05439, 'lat': 4.682436}",https://www.metrocuadrado.com/inmueble/venta-apartamento-bogota-chico-norte-et.-iii-1-habitaciones-1-banos-1-garajes/MC6182719,Entre 0 y 5 años,6,2026-02-05
19694-M6265636,"{'id': '14', 'nombre': 'Apartaestudio'}",398000000,36.0,40.0,1,1,1,"{'id': '1', 'nombre': 'Bogotá D.C.'}","{'id': '3', 'nombre': 'Noroccidente'}",MAZUREN,Colina Campestre,200000.0,MARIA CLARA NEIRA BOSSA,Usado,"{'lon': -74.0609, 'lat': 4.738711}",https://www.metrocuadrado.com/inmueble/venta-apartaestudio-bogota-mazuren-1-habitaciones-1-banos-1-garajes/19694-M6265636,Entre 5 y 10 años,4,2026-02-05
MC6301712,"{'id': '1', 'nombre': 'Apartamento'}",310000000,40.27,42.39,1,1,1,"{'id': '1', 'nombre': 'Bogotá D.C.'}","{'id': '1', 'nombre': 'Norte'}",ACACIAS USAQUEN,CEDRITOS   Cedritos,311000.0,,Usado,"{'lon': -74.036, 'lat': 4.72361}",https://www.metrocuadrado.com/inmueble/venta-apartamento-bogota-acacias-usaquen-1-habitaciones-1-banos-1-garajes/MC6301712,Más de 20 años,4,2026-02-05
MC3636717,"{'id': '1', 'nombre': 'Apartamento'}",429000000,40.0,40.61,1,2,1,"{'id': '1', 'nombre': 'Bogotá D.C.'}","{'id': '5', 'nombre': 'Centro'}",EGIPTO,LA CANDELARIA   Centro y Zona Colonial,483000.0,,Usado,"{'lon': -74.07271, 'lat': 4.5928035}",https://www.metrocuadrado.com/inmueble/venta-apartamento-bogota-egipto-1-habitaciones-2-banos-1-garajes/MC3636717,Entre 0 y 5 años,2,2026-02-05
MC6301762,"{'id': '1', 'nombre': 'Apartamento'}",250000000,30.0,35.0,1,1,1,"{'id': '1', 'nombre': 'Bogotá D.C.'}","{'id': '1', 'nombre': 'Norte'}",EL REDIL,EL REDIL   Zona Urbana,,,Usado,"{'lon': -74.02392, 'lat': 4.7500405}",https://www.metrocuadrado.com/inmueble/venta-apartamento-bogota-el-redil-1-habitaciones-1-banos-1-garajes/MC6301762,Entre 0 y 5 años,4,2026-02-05
14236-M6337860,"{'id': '14', 'nombre': 'Apartaestudio'}",400000000,44.67,44.67,1,2,1,"{'id': '1', 'nombre': 'Bogotá D.C.'}",,CEDRITOS,Cedritos,286000.0,DE LA HOZ SERVICIOS INMOBILIARIOS,Usado,"{'lon': -74.03302, 'lat': 4.7226896}",https://www.metrocuadrado.com/inmueble/venta-apartaestudio-bogota-cedritos-1-habitaciones-2-banos-1-garajes/14236-M6337860,Entre 5 y 10 años,4,2026-02-05
14236-M6343675,"{'id': '14', 'nombre': 'Apartaestudio'}",400000000,44.67,44.67,1,2,1,"{'id': '1', 'nombre': 'Bogotá D.C.'}",,CEDRITOS,Cedritos,286000.0,DE LA HOZ SERVICIOS INMOBILIARIOS,Usado,"{'lon': -74.03302, 'lat': 4.7226896}",https://www.metrocuadrado.com/inmueble/venta-apartaestudio-bogota-cedritos-1-habitaciones-2-banos-1-garajes/14236-M6343675,Entre 5 y 10 años,4,2026-02-05
MC6210086,"{'id': '1', 'nombre': 'Apartamento'}",190000000,22.0,19.7,1,1,0,"{'id': '1', 'nombre': 'Bogotá D.C.'}","{'id': '2', 'nombre': 'Chapinero'}",PARAMERICANO,PANAMERICANO   Centro Nariño,,,Usado,"{'lon': -74.081726, 'lat': 4.625922}",https://www.metrocuadrado.com/inmueble/venta-apartamento-bogota-paramericano-1-habitaciones-1-banos/MC6210086,Entre 0 y 5 años,3,2026-02-05
MC5399025,"{'id': '1', 'nombre': 'Apartamento'}",171000000,32.0,32.0,1,1,0,"{'id': '1', 'nombre': 'Bogotá D.C.'}","{'id': '3', 'nombre': 'Noroccidente'}",A S D ,LAS MERCEDES SUBA   Altos de Suba y Cerros de San Jorge,172000.0,,Usado,"{'lon': -74.09641, 'lat': 4.758001}",https://www.metrocuadrado.com/inmueble/venta-apartamento-bogota-a.s.d.-1-habitaciones-1-banos/MC5399025,Entre 5 y 10 años,3,2026-02-05
MC6214100,"{'id': '14', 'nombre': 'Apartaestudio'}",260000000,29.0,29.0,1,1,0,"{'id': '1', 'nombre': 'Bogotá D.C.'}","{'id': '4', 'nombre': 'Occidental'}",EL ROSARIO,Barrios Unidos,150000.0,,Usado,"{'lon': -74.078636, 'lat': 4.6562123}",https://www.metrocuadrado.com/inmueble/venta-apartaestudio-bogota-el-rosario-1-habitaciones-1-banos/MC6214100,Entre 0 y 5 años,3,2026-02-05
MC3018557,"{'id': '1', 'nombre': 'Apartamento'}",330000000,30.0,30.0,1,1,1,"{'id': '1', 'nombre': 'Bogotá D.C.'}","{'id': '2', 'nombre': 'Chapinero'}",SAGRADO CORAZON,chapinero,230000.0,,Usado,"{'lon': -74.06917, 'lat': 4.6279607}",https://www.metrocuadrado.com/inmueble/venta-apartamento-bogota-sagrado-corazon-1-habitaciones-1-banos-1-garajes/MC3018557,Entre 0 y 5 años,3,2026-02-05
MC6129860,"{'id': '1', 'nombre': 'Apartamento'}",360000000,38.0,37.0,1,1,1,"{'id': '1', 'nombre': 'Bogotá D.C.'}","{'id': '1', 'nombre': 'Norte'}",SANTA BIBIANA,CHICO NAVARRA   Zona Urbana,386000.0,,Usado,"{'lon': -74.05467, 'lat': 4.6933393}",https://www.metrocuadrado.com/inmueble/venta-apartamento-bogota-santa-bibiana-1-habitaciones-1-banos-1-garajes/MC6129860,Más de 20 años,6,2026-02-05
15955-M6355852,"{'id': '1', 'nombre': 'Apartamento'}",350000000,38.0,38.0,1,2,1,"{'id': '1', 'nombre': 'Bogotá D.C.'}","{'id': '1', 'nombre': 'Norte'}",CEDRO SALAZAR,BELMIRA,265000.0,INNOVAR Y ASESORIAS,Usado,"{'lon': -74.02952, 'lat': 4.7248187}",https://www.metrocuadrado.com/inmueble/venta-apartamento-bogota-cedro-salazar-1-habitaciones-2-banos-1-garajes/15955-M6355852,Entre 0 y 5 años,4,2026-02-05
16708-M6322718,"{'id': '14', 'nombre': 'Apartaestudio'}",465000000,56.0,56.0,1,2,1,"{'id': '1', 'nombre': 'Bogotá D.C.'}","{'id': '1', 'nombre': 'Norte'}",LAS ACASIAS,BELMIRA CEDRITOS,320000.0,MONICA PAEZ,Usado,"{'lon': -74.032104, 'lat': 4.723152}",https://www.metrocuadrado.com/inmueble/venta-apartaestudio-bogota-las-acasias-1-habitaciones-2-banos-1-garajes/16708-M6322718,Entre 0 y 5 años,4,2026-02-05
