propertyId,propertyType,salePrice,area,areac,rooms,bathrooms,garages,city,zone,neighborhood,commonNeighborhood,adminPrice,companyName,propertyState,coordinates,link,builtTime,stratum,Extraction Date
15738-M5636938,"{'id': '14', 'nombre': 'Apartaestudio'}",215000000,37.0,37.0,1,1,0,"{'id': '1', 'nombre': 'Bogotá D.C.'}",,SANTA TERESA NORTE,Santa Teresa Norte,135000.0,Mr.inmobiliaria,Usado,"{'lon': -74.0233, 'lat': 4.7464395}",https://www.metrocuadrado.com/inmueble/venta-apartaestudio-bogota-santa-teresa-norte-1-habitaciones-1-banos/15738-M5636938,Entre 0 y 5 años,3,2026-04-30
MC6446386,"{'id': '1', 'nombre': 'Apartamento'}",309000000,26.0,31.0,1,1,0,"{'id': '1', 'nombre': 'Bogotá D.C.'}","{'id': '4', 'nombre': 'Occidental'}",PARQUE POPULAR SALITRE,JOSE JOAQUIN VARGAS   Engativá,123000.0,,Usado,"{'lon': -74.08436, 'lat': 4.668719}",https://www.metrocuadrado.com/inmueble/venta-apartamento-bogota-parque-popular-salitre-1-habitaciones-1-banos/MC6446386,Entre 0 y 5 años,4,2026-04-30
MC6427393,"{'id': '1', 'nombre': 'Apartamento'}",1000000000,90.0,90.0,1,2,2,"{'id': '1', 'nombre': 'Bogotá D.C.'}","{'id': '1', 'nombre': 'Norte'}",EL REFUGIO,EL REFUGIO CHICO   Zona Urbana,600000.0,,Usado,"{'lon': -74.04574, 'lat': 4.6663613}",https://www.metrocuadrado.com/inmueble/venta-apartamento-bogota-el-refugio-1-habitaciones-2-banos-2-garajes/MC6427393,Entre 10 y 20 años,6,2026-04-30
15738-M5636938,"{'id': '14', 'nombre': 'Apartaestudio'}",215000000,37.0,37.0,1,1,0,"{'id': '1', 'nombre': 'Bogotá D.C.'}",,SANTA TERESA NORTE,Santa Teresa Norte,135000.0,Mr.inmobiliaria,Usado,"{'lon': -74.0233, 'lat': 4.7464395}",https://www.metrocuadrado.com/inmueble/venta-apartaestudio-bogota-santa-teresa-norte-1-habitaciones-1-banos/15738-M5636938,Entre 0 y 5 años,3,2026-04-30
14271-M6623228,"{'id': '1', 'nombre': 'Apartamento'}",320000000,41.0,41.0,1,1,0,"{'id': '1', 'nombre': 'Bogotá D.C.'}","{'id': '4', 'nombre': 'Occidental'}",CARLOS LLERAS RESTREPO MANZANA B,MONTEVIDEO,234000.0,El Olimpo Inmobiliaria,Usado,"{'lon': -74.11682, 'lat': 4.6589136}",https://www.metrocuadrado.com/inmueble/venta-apartamento-bogota-carlos-lleras-restrepo-manzana-b-1-habitaciones-1-banos/14271-M6623228,Entre 0 y 5 años,4,2026-04-30
MC6623078,"{'id': '14', 'nombre': 'Apartaestudio'}",412000000,33.2,36.7,1,1,1,"{'id': '1', 'nombre': 'Bogotá D.C.'}","{'id': '3', 'nombre': 'Noroccidente'}",ESTORIL,ESTORIL   Niza Alhambra,,,Usado,"{'lon': -74.05904, 'lat': 4.6881413}",https://www.metrocuadrado.com/inmueble/venta-apartaestudio-bogota-estoril-1-habitaciones-1-banos-1-garajes/MC6623078,Entre 0 y 5 años,5,2026-04-30
MC6369506,"{'id': '1', 'nombre': 'Apartamento'}",290000000,38.0,38.0,1,1,1,"{'id': '1', 'nombre': 'Bogotá D.C.'}","{'id': '2', 'nombre': 'Chapinero'}",CHAPINERO CENTRAL,CHAPINERO CENTRAL   Chapinero,516000.0,,Usado,"{'lon': -74.06294, 'lat': 4.6435795}",https://www.metrocuadrado.com/inmueble/venta-apartamento-bogota-chapinero-central-1-habitaciones-1-banos-1-garajes/MC6369506,Entre 10 y 20 años,3,2026-04-30
MC6610643,"{'id': '1', 'nombre': 'Apartamento'}",450000000,40.0,40.0,1,1,1,"{'id': '1', 'nombre': 'Bogotá D.C.'}","{'id': '4', 'nombre': 'Occidental'}",ALCAZARES NORTE,LOS ALCAZARES   Zona Urbana,,,Usado,"{'lon': -74.06722, 'lat': 4.663243}",https://www.metrocuadrado.com/inmueble/venta-apartamento-bogota-alcazares-norte-1-habitaciones-1-banos-1-garajes/MC6610643,Entre 5 y 10 años,4,2026-04-30
21407-M6549161,"{'id': '14', 'nombre': 'Apartaestudio'}",210000000,18.8,24.0,1,1,0,"{'id': '1', 'nombre': 'Bogotá D.C.'}","{'id': '2', 'nombre': 'Chapinero'}",BELALCAZAR,CHAPINERO GALERIAS,198000.0,CARLOS ANDRES URIBE  SANCHEZ,Usado,"{'lon': -74.0782, 'lat': 4.641355}",https://www.metrocuadrado.com/inmueble/venta-apartaestudio-bogota-belalcazar-1-habitaciones-1-banos/21407-M6549161,Entre 0 y 5 años,4,2026-04-30
MC6523696,"{'id': '1', 'nombre': 'Apartamento'}",439000000,44.0,44.0,1,1,1,"{'id': '1', 'nombre': 'Bogotá D.C.'}","{'id': '1', 'nombre': 'Norte'}",CHICO NORTE ET  II,CHICO RESERVADO   Santa Bárbara,,,Usado,"{'lon': -74.04274, 'lat': 4.677908}",https://www.metrocuadrado.com/inmueble/venta-apartamento-bogota-chico-norte-et.-ii-1-habitaciones-1-banos-1-garajes/MC6523696,Más de 20 años,6,2026-04-30
MC6108289,"{'id': '1', 'nombre': 'Apartamento'}",459000000,36.0,39.0,1,2,1,"{'id': '1', 'nombre': 'Bogotá D.C.'}","{'id': '1', 'nombre': 'Norte'}",SANTA BARBARA ORIENTAL,SANTA BARBARA ORIENTAL USAQUEN   Santa Bárbara,500000.0,,Usado,"{'lon': -74.03163, 'lat': 4.698666}",https://www.metrocuadrado.com/inmueble/venta-apartamento-bogota-santa-barbara-oriental-1-habitaciones-2-banos-1-garajes/MC6108289,Entre 0 y 5 años,5,2026-04-30
495-M6310629,"{'id': '1', 'nombre': 'Apartamento'}",521992000,37.0,37.0,1,1,0,"{'id': '1', 'nombre': 'Bogotá D.C.'}",,CHICO NORTE,Chico Norte,,Gestiones Inmobiliarias F.T. SAS,Usado,"{'lon': -74.0495, 'lat': 4.68089}",https://www.metrocuadrado.com/inmueble/venta-apartamento-bogota-chico-norte-1-habitaciones-1-banos/495-M6310629,Entre 0 y 5 años,6,2026-04-30
MC5702809,"{'id': '1', 'nombre': 'Apartamento'}",340000000,23.0,21.0,1,1,0,"{'id': '1', 'nombre': 'Bogotá D.C.'}","{'id': '1', 'nombre': 'Norte'}",RINCON DEL CHICO,CHICO SANTA BARBARA   Chicó,270000.0,,Usado,"{'lon': -74.04731, 'lat': 4.685714}",https://www.metrocuadrado.com/inmueble/venta-apartamento-bogota-rincon-del-chico-1-habitaciones-1-banos/MC5702809,Entre 0 y 5 años,5,2026-04-30
MC6529900,"{'id': '1', 'nombre': 'Apartamento'}",370000000,46.0,46.0,1,1,1,"{'id': '1', 'nombre': 'Bogotá D.C.'}","{'id': '1', 'nombre': 'Norte'}",LA PORCIUNCULA,NOGAL   Zona Urbana,430400.0,,Usado,"{'lon': -74.0571, 'lat': 4.658595}",https://www.metrocuadrado.com/inmueble/venta-apartamento-bogota-la-porciuncula-1-habitaciones-1-banos-1-garajes/MC6529900,Más de 20 años,5,2026-04-30
