propertyId,propertyType,salePrice,area,areac,rooms,bathrooms,garages,city,zone,neighborhood,commonNeighborhood,adminPrice,companyName,propertyState,coordinates,link,builtTime,stratum,Extraction Date
687-M5049803,"{'id': '1', 'nombre': 'Apartamento'}",640000000,67,67,1,2,1,"{'id': '3', 'nombre': 'Medellín'}","{'id': '38', 'nombre': 'Suroriente'}",SIMESA,EL POBLADO,300000,PROINTEGRAL SA,Usado,"{'lon': -75.57479, 'lat': 6.2243943}",https://www.metrocuadrado.com/inmueble/venta-apartamento-medellin-simesa-1-habitaciones-2-banos-1-garajes/687-M5049803,Entre 0 y 5 años,6,2025-09-18
20219-M5996168,"{'id': '14', 'nombre': 'Apartaestudio'}",700000000,57,57,1,1,1,"{'id': '3', 'nombre': 'Medellín'}","{'id': '38', 'nombre': 'Suroriente'}",LOS NARANJOS,Los Balsos,380000,INMOLUXURY REALTY,Usado,"{'lon': -75.5624, 'lat': 6.193805}",https://www.metrocuadrado.com/inmueble/venta-apartaestudio-medellin-los-naranjos-1-habitaciones-1-banos-1-garajes/20219-M5996168,Entre 0 y 5 años,6,2025-09-18
687-M6055575,"{'id': '1', 'nombre': 'Apartamento'}",910000000,74,74,1,2,1,"{'id': '3', 'nombre': 'Medellín'}","{'id': '38', 'nombre': 'Suroriente'}",SAN LUCAS,EL POBLADO,706000,PROINTEGRAL SA,Usado,"{'lon': -75.56406, 'lat': 6.1799445}",https://www.metrocuadrado.com/inmueble/venta-apartamento-medellin-san-lucas-1-habitaciones-2-banos-1-garajes/687-M6055575,Entre 10 y 20 años,6,2025-09-18
19875-M6049631,"{'id': '14', 'nombre': 'Apartaestudio'}",200000000,35,35,1,1,0,"{'id': '3', 'nombre': 'Medellín'}","{'id': '36', 'nombre': 'Nororiente'}",BOMBONA NO1,LA CANDELARIA,184800,CESAR AUGUSTO SUESCUN HENAO,Usado,"{'lon': -75.56226, 'lat': 6.2428074}",https://www.metrocuadrado.com/inmueble/venta-apartaestudio-medellin-bombona-no1-1-habitaciones-1-banos/19875-M6049631,Entre 0 y 5 años,4,2025-09-18
687-M5217089,"{'id': '1', 'nombre': 'Apartamento'}",345000000,75,75,1,2,1,"{'id': '3', 'nombre': 'Medellín'}","{'id': '38', 'nombre': 'Suroriente'}",ALTOS DEL POBLADO,EL POBLADO,450000,PROINTEGRAL SA,Usado,"{'lon': -75.554375, 'lat': 6.21542}",https://www.metrocuadrado.com/inmueble/venta-apartamento-medellin-altos-del-poblado-1-habitaciones-2-banos-1-garajes/687-M5217089,Entre 10 y 20 años,5,2025-09-18
20772-M5993746,"{'id': '1', 'nombre': 'Apartamento'}",690000000,64,64,1,2,1,"{'id': '3', 'nombre': 'Medellín'}",,NA,El Poblado,414000,COMPAÑIA INMOBILIARIA INTERBIENES,Usado,"{'lon': 0, 'lat': 0}",https://www.metrocuadrado.com/inmueble/venta-apartamento-medellin-na-1-habitaciones-2-banos-1-garajes/20772-M5993746,Entre 0 y 5 años,6,2025-09-18
20543-M5863141,"{'id': '14', 'nombre': 'Apartaestudio'}",480000000,54,54,1,2,1,"{'id': '3', 'nombre': 'Medellín'}","{'id': '38', 'nombre': 'Suroriente'}",PATIO BONITO,EL POBLADO,460000,NATHALIA MARTINEZ MEJIA,Usado,"{'lon': -75.57704, 'lat': 6.2134905}",https://www.metrocuadrado.com/inmueble/venta-apartaestudio-medellin-patio-bonito-1-habitaciones-2-banos-1-garajes/20543-M5863141,Más de 20 años,5,2025-09-18
14779-M5803436,"{'id': '1', 'nombre': 'Apartamento'}",735000000,70,70,1,2,1,"{'id': '3', 'nombre': 'Medellín'}","{'id': '36', 'nombre': 'Nororiente'}",SIMESA,Poblado,350000,SU RED INMOBILIARIA ,Usado,"{'lon': -75.57402, 'lat': 6.223573}",https://www.metrocuadrado.com/inmueble/venta-apartamento-medellin-simesa-1-habitaciones-2-banos-1-garajes/14779-M5803436,Entre 0 y 5 años,6,2025-09-18
