propertyId,propertyType,salePrice,area,areac,rooms,bathrooms,garages,city,zone,neighborhood,commonNeighborhood,adminPrice,companyName,propertyState,coordinates,link,builtTime,stratum,Extraction Date
13094-M5662601,"{'id': '14', 'nombre': 'Apartaestudio'}",520000000,28.0,28.0,1,1,1,"{'id': '3', 'nombre': 'Medellín'}",,NA,La Aguacatala,443000,INMOBILIARIA SELECTA,Usado,"{'lon': 0, 'lat': 0}",https://www.metrocuadrado.com/inmueble/venta-apartaestudio-medellin-na-1-habitaciones-1-banos-1-garajes/13094-M5662601,Entre 0 y 5 años,6,2025-12-18
21483-M6151841,"{'id': '14', 'nombre': 'Apartaestudio'}",630000000,61.0,61.75,1,2,1,"{'id': '3', 'nombre': 'Medellín'}","{'id': '38', 'nombre': 'Suroriente'}",EL POBLADO,EL POBLADO EL TESORO,386551,Mihabitat asesores inmobiliarios,Usado,"{'lon': -75.567696, 'lat': 6.2090645}",https://www.metrocuadrado.com/inmueble/venta-apartaestudio-medellin-el-poblado-1-habitaciones-2-banos-1-garajes/21483-M6151841,Entre 10 y 20 años,6,2025-12-18
17166-M5802226,"{'id': '1', 'nombre': 'Apartamento'}",595000000,52.46,52.46,1,1,1,"{'id': '3', 'nombre': 'Medellín'}",,NA,Laureles,595000,COMERCIAL INMOBILIARIA,Usado,,https://www.metrocuadrado.com/inmueble/venta-apartamento-medellin-na-1-habitaciones-1-banos-1-garajes/17166-M5802226,Entre 0 y 5 años,5,2025-12-18
21505-M6164838,"{'id': '1', 'nombre': 'Apartamento'}",750000000,50.0,50.0,1,2,1,"{'id': '3', 'nombre': 'Medellín'}","{'id': '38', 'nombre': 'Suroriente'}",EL POBLADO,EL POBLADO PROVENZA,502000,Osma Consultores Inmobiliarios,Usado,"{'lon': -75.56584, 'lat': 6.2075067}",https://www.metrocuadrado.com/inmueble/venta-apartamento-medellin-el-poblado-1-habitaciones-2-banos-1-garajes/21505-M6164838,Entre 5 y 10 años,6,2025-12-18
18939-M5589412,"{'id': '1', 'nombre': 'Apartamento'}",720000000,64.74,70.12,1,2,1,"{'id': '3', 'nombre': 'Medellín'}","{'id': '38', 'nombre': 'Suroriente'}",SIMESA,POBLADO CIUDAD DEL RIO,550000,Torre Forte Inmobiliaria,Usado,"{'lon': -75.57424, 'lat': 6.224667}",https://www.metrocuadrado.com/inmueble/venta-apartamento-medellin-simesa-1-habitaciones-2-banos-1-garajes/18939-M5589412,Entre 0 y 5 años,5,2025-12-18
20033-M6055178,"{'id': '1', 'nombre': 'Apartamento'}",850000000,74.0,74.0,1,2,1,"{'id': '3', 'nombre': 'Medellín'}","{'id': '38', 'nombre': 'Suroriente'}",LA FLORIDA,Provenza,800000,AGENCIA INMOBILIARIA,Usado,"{'lon': -75.565575, 'lat': 6.206563}",https://www.metrocuadrado.com/inmueble/venta-apartamento-medellin-la-florida-1-habitaciones-2-banos-1-garajes/20033-M6055178,Entre 5 y 10 años,6,2025-12-18
19875-M6152279,"{'id': '1', 'nombre': 'Apartamento'}",200000000,35.0,35.0,1,1,0,"{'id': '3', 'nombre': 'Medellín'}","{'id': '34', 'nombre': 'Centro'}",COLON,LA CANDELARIA,184800,CESAR AUGUSTO SUESCUN HENAO,Usado,"{'lon': -75.57066, 'lat': 6.2401824}",https://www.metrocuadrado.com/inmueble/venta-apartamento-medellin-colon-1-habitaciones-1-banos/19875-M6152279,Entre 5 y 10 años,3,2025-12-18
687-M5555966,"{'id': '1', 'nombre': 'Apartamento'}",750000000,78.0,78.0,1,2,4,"{'id': '3', 'nombre': 'Medellín'}","{'id': '38', 'nombre': 'Suroriente'}",ALEJANDRIA,EL POBLADO,430000,PROINTEGRAL SA,Usado,"{'lon': -75.57109, 'lat': 6.1985765}",https://www.metrocuadrado.com/inmueble/venta-apartamento-medellin-alejandria-1-habitaciones-2-banos-4-garajes/687-M5555966,Entre 5 y 10 años,6,2025-12-18
687-M6223370,"{'id': '1', 'nombre': 'Apartamento'}",760000000,63.0,63.0,1,2,1,"{'id': '3', 'nombre': 'Medellín'}","{'id': '38', 'nombre': 'Suroriente'}",LA FLORIDA,EL POBLADO,745000,PROINTEGRAL SA,Usado,"{'lon': -75.56727, 'lat': 6.2058773}",https://www.metrocuadrado.com/inmueble/venta-apartamento-medellin-la-florida-1-habitaciones-2-banos-1-garajes/687-M6223370,Entre 10 y 20 años,6,2025-12-18
11976-M6052200,"{'id': '1', 'nombre': 'Apartamento'}",740000000,79.0,79.0,1,2,1,"{'id': '3', 'nombre': 'Medellín'}","{'id': '38', 'nombre': 'Suroriente'}",SIMESA,Ciudad Del Rio,630000,ALEXANDRA SUAREZ BIENES RAICES,Usado,"{'lon': -75.57377, 'lat': 6.22406}",https://www.metrocuadrado.com/inmueble/venta-apartamento-medellin-simesa-1-habitaciones-2-banos-1-garajes/11976-M6052200,Entre 0 y 5 años,5,2025-12-18
14779-M5803436,"{'id': '1', 'nombre': 'Apartamento'}",735000000,70.0,70.0,1,2,1,"{'id': '3', 'nombre': 'Medellín'}","{'id': '36', 'nombre': 'Nororiente'}",SIMESA,Poblado,350000,SU RED INMOBILIARIA ,Usado,"{'lon': -75.57402, 'lat': 6.223573}",https://www.metrocuadrado.com/inmueble/venta-apartamento-medellin-simesa-1-habitaciones-2-banos-1-garajes/14779-M5803436,Entre 0 y 5 años,6,2025-12-18
16487-M6134972,"{'id': '1', 'nombre': 'Apartamento'}",578000000,48.0,48.0,1,1,1,"{'id': '3', 'nombre': 'Medellín'}",,EL POBLADO,El Poblado,390000,Inmobiliaria Casa Liberty,Usado,"{'lon': -75.57435, 'lat': 6.2244}",https://www.metrocuadrado.com/inmueble/venta-apartamento-medellin-el-poblado-1-habitaciones-1-banos-1-garajes/16487-M6134972,Entre 0 y 5 años,5,2025-12-18
687-M6104701,"{'id': '1', 'nombre': 'Apartamento'}",800000000,72.0,72.0,1,2,1,"{'id': '3', 'nombre': 'Medellín'}","{'id': '38', 'nombre': 'Suroriente'}",ALEJANDRIA,EL POBLADO,500000,PROINTEGRAL SA,Usado,"{'lon': -75.56916, 'lat': 6.197472}",https://www.metrocuadrado.com/inmueble/venta-apartamento-medellin-alejandria-1-habitaciones-2-banos-1-garajes/687-M6104701,Entre 0 y 5 años,6,2025-12-18
20033-M6045637,"{'id': '1', 'nombre': 'Apartamento'}",395000000,42.0,42.0,1,1,0,"{'id': '3', 'nombre': 'Medellín'}",,NA,Bombona,290000,AGENCIA INMOBILIARIA,Usado,"{'lon': 0, 'lat': 0}",https://www.metrocuadrado.com/inmueble/venta-apartamento-medellin-na-1-habitaciones-1-banos/20033-M6045637,Entre 5 y 10 años,4,2025-12-18
21417-M6152082,"{'id': '1', 'nombre': 'Apartamento'}",420000000,53.0,53.0,1,2,1,"{'id': '3', 'nombre': 'Medellín'}",,LA MOTA,La Mota,270000,K'STAINMOBILIARIA  S.A.S,Usado,"{'lon': -75.6038, 'lat': 6.2327895}",https://www.metrocuadrado.com/inmueble/venta-apartamento-medellin-la-mota-1-habitaciones-2-banos-1-garajes/21417-M6152082,Entre 5 y 10 años,4,2025-12-18
21410-M6145258,"{'id': '14', 'nombre': 'Apartaestudio'}",370000000,38.0,38.0,1,1,0,"{'id': '3', 'nombre': 'Medellín'}","{'id': '37', 'nombre': 'Suroccidente'}",URBANIZACION PLAZA VICUNA,BELEN LOS ALPES,536131,ARRENDAMIENTOS MEDELLÍN,Usado,"{'lon': -75.6056, 'lat': 6.231157}",https://www.metrocuadrado.com/inmueble/venta-apartaestudio-medellin-urbanizacion-plaza-vicuna-1-habitaciones-1-banos/21410-M6145258,Entre 5 y 10 años,4,2025-12-18
20364-M6008121,"{'id': '1', 'nombre': 'Apartamento'}",995000000,77.19,83.43,1,2,1,"{'id': '3', 'nombre': 'Medellín'}","{'id': '38', 'nombre': 'Suroriente'}",EL TESORO,EL POBLADO EL TESORO,1072000,ASESORIAS  INMOBILIARIAS VM SAS,Usado,"{'lon': -75.55549, 'lat': 6.2040343}",https://www.metrocuadrado.com/inmueble/venta-apartamento-medellin-el-tesoro-1-habitaciones-2-banos-1-garajes/20364-M6008121,Entre 0 y 5 años,6,2025-12-18
