propertyId,propertyType,salePrice,area,areac,rooms,bathrooms,garages,city,zone,neighborhood,commonNeighborhood,adminPrice,companyName,propertyState,coordinates,link,builtTime,stratum,Extraction Date
5570-M5982034,"{'id': '1', 'nombre': 'Apartamento'}",1290000000,119,119,1,2,2,"{'id': '3', 'nombre': 'Medellín'}","{'id': '38', 'nombre': 'Suroriente'}",LA FLORIDA,PROVENZA,743000,GOMEZ SIERRA PROPIEDADES,Usado,"{'lon': -75.56358, 'lat': 6.204363}",https://www.metrocuadrado.com/inmueble/venta-apartamento-medellin-la-florida-1-habitaciones-2-banos-2-garajes/5570-M5982034,Entre 0 y 5 años,6,2025-08-22
17166-M5845345,"{'id': '14', 'nombre': 'Apartaestudio'}",485000000,54,54,1,1,0,"{'id': '3', 'nombre': 'Medellín'}","{'id': '37', 'nombre': 'Suroccidente'}",SANTA FE,Laureles,0,COMERCIAL INMOBILIARIA,Usado,"{'lon': -75.58361, 'lat': 6.221844}",https://www.metrocuadrado.com/inmueble/venta-apartaestudio-medellin-santa-fe-1-habitaciones-1-banos/17166-M5845345,Entre 0 y 5 años,5,2025-08-22
16187-M6002681,"{'id': '14', 'nombre': 'Apartaestudio'}",477000000,42,42,1,1,1,"{'id': '3', 'nombre': 'Medellín'}","{'id': '38', 'nombre': 'Suroriente'}",ASTORGA,Poblado Astorga,446000,SM Real Estate,Usado,"{'lon': -75.57215, 'lat': 6.2107964}",https://www.metrocuadrado.com/inmueble/venta-apartaestudio-medellin-astorga-1-habitaciones-1-banos-1-garajes/16187-M6002681,Más de 20 años,4,2025-08-22
2895-M5967366,"{'id': '14', 'nombre': 'Apartaestudio'}",249000000,40,40,1,5,0,"{'id': '3', 'nombre': 'Medellín'}",,ROBLEDO,Robledo,230000,GRUPO EMPRESARIAL MONOPOLIO INMOBILIARIO,Usado,"{'lon': -75.59662, 'lat': 6.275877}",https://www.metrocuadrado.com/inmueble/venta-apartaestudio-medellin-robledo-1-habitaciones-5-banos/2895-M5967366,Más de 20 años,3,2025-08-22
20261-M5997521,"{'id': '14', 'nombre': 'Apartaestudio'}",540000000,49,49,1,2,1,"{'id': '3', 'nombre': 'Medellín'}","{'id': '38', 'nombre': 'Suroriente'}",SIMESA,POBLADO CIUDAD DEL RIO,350000,Oportunidades de inversión inmobiliaria,Usado,"{'lon': -75.57431, 'lat': 6.2242217}",https://www.metrocuadrado.com/inmueble/venta-apartaestudio-medellin-simesa-1-habitaciones-2-banos-1-garajes/20261-M5997521,Entre 0 y 5 años,6,2025-08-22
19797-M6004746,"{'id': '1', 'nombre': 'Apartamento'}",969000000,86,86,1,2,2,"{'id': '3', 'nombre': 'Medellín'}",,NA,Las Palmas,450000,HOMES INMOBILIARIA,Usado,"{'lon': 0, 'lat': 0}",https://www.metrocuadrado.com/inmueble/venta-apartamento-medellin-na-1-habitaciones-2-banos-2-garajes/19797-M6004746,Entre 5 y 10 años,6,2025-08-22
17798-M5722694,"{'id': '1', 'nombre': 'Apartamento'}",930000000,90,105,1,2,2,"{'id': '3', 'nombre': 'Medellín'}","{'id': '38', 'nombre': 'Suroriente'}",EL TESORO,LA COLA DEL ZORRO,600000,HOMES u0026 HAUSES,Usado,"{'lon': -75.55342, 'lat': 6.2001963}",https://www.metrocuadrado.com/inmueble/venta-apartamento-medellin-el-tesoro-1-habitaciones-2-banos-2-garajes/17798-M5722694,Entre 10 y 20 años,6,2025-08-22
19875-M5774249,"{'id': '14', 'nombre': 'Apartaestudio'}",670000000,63,63,1,2,1,"{'id': '3', 'nombre': 'Medellín'}","{'id': '38', 'nombre': 'Suroriente'}",SANTA MARIA DE LOS ANGELES,EL POBLADO DE SANTA MARIA DE LOS ANGELES,704000,CESAR AUGUSTO SUESCUN HENAO,Usado,"{'lon': -75.57859, 'lat': 6.187718}",https://www.metrocuadrado.com/inmueble/venta-apartaestudio-medellin-santa-maria-de-los-angeles-1-habitaciones-2-banos-1-garajes/19875-M5774249,Entre 0 y 5 años,6,2025-08-22
755-M5944205,"{'id': '1', 'nombre': 'Apartamento'}",698000000,53,53,1,2,1,"{'id': '3', 'nombre': 'Medellín'}","{'id': '38', 'nombre': 'Suroriente'}",ALEJANDRIA,El Poblado,800000,Deslumbra SAS,Usado,"{'lon': -75.56755, 'lat': 6.1991234}",https://www.metrocuadrado.com/inmueble/venta-apartamento-medellin-alejandria-1-habitaciones-2-banos-1-garajes/755-M5944205,Entre 5 y 10 años,6,2025-08-22
20219-M5996168,"{'id': '14', 'nombre': 'Apartaestudio'}",700000000,57,57,1,1,1,"{'id': '3', 'nombre': 'Medellín'}","{'id': '38', 'nombre': 'Suroriente'}",LOS NARANJOS,Los Balsos,380000,INMOLUXURY REALTY,Usado,"{'lon': -75.5624, 'lat': 6.193805}",https://www.metrocuadrado.com/inmueble/venta-apartaestudio-medellin-los-naranjos-1-habitaciones-1-banos-1-garajes/20219-M5996168,Entre 0 y 5 años,6,2025-08-22
687-M5557530,"{'id': '1', 'nombre': 'Apartamento'}",320000000,49,49,1,1,1,"{'id': '3', 'nombre': 'Medellín'}","{'id': '36', 'nombre': 'Nororiente'}",ASOMADERA NO 1,EL POBLADO,0,PROINTEGRAL SA,Usado,"{'lon': -75.56065, 'lat': 6.225736}",https://www.metrocuadrado.com/inmueble/venta-apartamento-medellin-asomadera-no.1-1-habitaciones-1-banos-1-garajes/687-M5557530,Entre 5 y 10 años,5,2025-08-22
20772-M5993746,"{'id': '1', 'nombre': 'Apartamento'}",690000000,64,64,1,2,1,"{'id': '3', 'nombre': 'Medellín'}",,NA,El Poblado,414000,COMPAÑIA INMOBILIARIA INTERBIENES,Usado,"{'lon': 0, 'lat': 0}",https://www.metrocuadrado.com/inmueble/venta-apartamento-medellin-na-1-habitaciones-2-banos-1-garajes/20772-M5993746,Entre 0 y 5 años,6,2025-08-22
16507-M5949448,"{'id': '14', 'nombre': 'Apartaestudio'}",470000000,35,35,1,1,1,"{'id': '3', 'nombre': 'Medellín'}",,POBLADO,Poblado,510000,CONECTAR INMOBILIARIA,Usado,"{'lon': -75.56368, 'lat': 6.2268376}",https://www.metrocuadrado.com/inmueble/venta-apartaestudio-medellin-poblado-1-habitaciones-1-banos-1-garajes/16507-M5949448,Entre 10 y 20 años,6,2025-08-22
18760-M5776136,"{'id': '14', 'nombre': 'Apartaestudio'}",315000000,37,37,1,1,1,"{'id': '3', 'nombre': 'Medellín'}","{'id': '35', 'nombre': 'Noroccidente'}",ESTADIO,EL ESTADIO,190000,Fernando Villegas,Usado,"{'lon': -75.59394, 'lat': 6.259792}",https://www.metrocuadrado.com/inmueble/venta-apartaestudio-medellin-estadio-1-habitaciones-1-banos-1-garajes/18760-M5776136,Entre 5 y 10 años,5,2025-08-22
12116-M5551397,"{'id': '1', 'nombre': 'Apartamento'}",460000000,50,50,1,1,1,"{'id': '3', 'nombre': 'Medellín'}","{'id': '37', 'nombre': 'Suroccidente'}",LOMA DE LOS BERNAL,BELEN,285000,GRUPO INMOBILIARIO CABAL SAS,Usado,"{'lon': -75.604164, 'lat': 6.2175794}",https://www.metrocuadrado.com/inmueble/venta-apartamento-medellin-loma-de-los-bernal-1-habitaciones-1-banos-1-garajes/12116-M5551397,Entre 5 y 10 años,5,2025-08-22
14779-M5803436,"{'id': '1', 'nombre': 'Apartamento'}",735000000,70,70,1,2,1,"{'id': '3', 'nombre': 'Medellín'}","{'id': '36', 'nombre': 'Nororiente'}",SIMESA,Poblado,350000,SU RED INMOBILIARIA ,Usado,"{'lon': -75.57402, 'lat': 6.223573}",https://www.metrocuadrado.com/inmueble/venta-apartamento-medellin-simesa-1-habitaciones-2-banos-1-garajes/14779-M5803436,Entre 0 y 5 años,6,2025-08-22
