propertyId,propertyType,salePrice,area,areac,rooms,bathrooms,garages,city,zone,neighborhood,commonNeighborhood,adminPrice,companyName,propertyState,coordinates,link,builtTime,stratum,Extraction Date
5570-M5982034,"{'id': '1', 'nombre': 'Apartamento'}",1290000000,119,119,1,2,2,"{'id': '3', 'nombre': 'Medellín'}","{'id': '38', 'nombre': 'Suroriente'}",LA FLORIDA,PROVENZA,743000,GOMEZ SIERRA PROPIEDADES,Usado,"{'lon': -75.56358, 'lat': 6.204363}",https://www.metrocuadrado.com/inmueble/venta-apartamento-medellin-la-florida-1-habitaciones-2-banos-2-garajes/5570-M5982034,Entre 0 y 5 años,6,2025-09-05
17166-M5845345,"{'id': '14', 'nombre': 'Apartaestudio'}",485000000,54,54,1,1,0,"{'id': '3', 'nombre': 'Medellín'}","{'id': '37', 'nombre': 'Suroccidente'}",SANTA FE,Laureles,0,COMERCIAL INMOBILIARIA,Usado,"{'lon': -75.58361, 'lat': 6.221844}",https://www.metrocuadrado.com/inmueble/venta-apartaestudio-medellin-santa-fe-1-habitaciones-1-banos/17166-M5845345,Entre 0 y 5 años,5,2025-09-05
14779-M5803436,"{'id': '1', 'nombre': 'Apartamento'}",735000000,70,70,1,2,1,"{'id': '3', 'nombre': 'Medellín'}","{'id': '36', 'nombre': 'Nororiente'}",SIMESA,Poblado,350000,SU RED INMOBILIARIA ,Usado,"{'lon': -75.57402, 'lat': 6.223573}",https://www.metrocuadrado.com/inmueble/venta-apartamento-medellin-simesa-1-habitaciones-2-banos-1-garajes/14779-M5803436,Entre 0 y 5 años,6,2025-09-05
755-M6010223,"{'id': '14', 'nombre': 'Apartaestudio'}",698000000,53,53,1,2,1,"{'id': '3', 'nombre': 'Medellín'}","{'id': '38', 'nombre': 'Suroriente'}",ALEJANDRIA,El Poblado,800000,Deslumbra SAS,Usado,"{'lon': -75.56755, 'lat': 6.1991234}",https://www.metrocuadrado.com/inmueble/venta-apartaestudio-medellin-alejandria-1-habitaciones-2-banos-1-garajes/755-M6010223,Entre 5 y 10 años,6,2025-09-05
20778-M6002499,"{'id': '14', 'nombre': 'Apartaestudio'}",345000000,54,54,1,1,1,"{'id': '3', 'nombre': 'Medellín'}",,CALASANZ PARTE BAJA,Calasanz Parte Baja,70000,MARIA CLAUDIA RENDON GARCIA,Usado,"{'lon': -75.599266, 'lat': 6.2643404}",https://www.metrocuadrado.com/inmueble/venta-apartaestudio-medellin-calasanz-parte-baja-1-habitaciones-1-banos-1-garajes/20778-M6002499,Entre 5 y 10 años,5,2025-09-05
687-M5692350,"{'id': '1', 'nombre': 'Apartamento'}",395000000,45,45,1,1,1,"{'id': '3', 'nombre': 'Medellín'}","{'id': '38', 'nombre': 'Suroriente'}",EL DIAMANTE NO 2,EL POBLADO,290000,PROINTEGRAL SA,Usado,"{'lon': -75.57824, 'lat': 6.1836457}",https://www.metrocuadrado.com/inmueble/venta-apartamento-medellin-el-diamante-no.2-1-habitaciones-1-banos-1-garajes/687-M5692350,Entre 10 y 20 años,6,2025-09-05
687-M5525495,"{'id': '1', 'nombre': 'Apartamento'}",2910000000,249,249,1,3,2,"{'id': '3', 'nombre': 'Medellín'}","{'id': '38', 'nombre': 'Suroriente'}",LA FLORIDA,EL POBLADO,0,PROINTEGRAL SA,Usado,"{'lon': -75.569916, 'lat': 6.2028065}",https://www.metrocuadrado.com/inmueble/venta-apartamento-medellin-la-florida-1-habitaciones-3-banos-2-garajes/687-M5525495,Entre 5 y 10 años,6,2025-09-05
