propertyId,propertyType,salePrice,area,areac,rooms,bathrooms,garages,city,zone,neighborhood,commonNeighborhood,adminPrice,companyName,propertyState,coordinates,link,builtTime,stratum,Extraction Date
21106-M6053831,"{'id': '1', 'nombre': 'Apartamento'}",330000000,70,70,1,1,0,"{'id': '1', 'nombre': 'Bogotá D.C.'}","{'id': '5', 'nombre': 'Centro'}",LA CATEDRAL,LA CANDELARIA,200000.0,INMOBILIARIA HOUZZE,Usado,"{'lon': -74.07098, 'lat': 4.598099}",https://www.metrocuadrado.com/inmueble/venta-apartamento-bogota-la-catedral-1-habitaciones-1-banos/21106-M6053831,Más de 20 años,2,2025-09-20
175-M6013546,"{'id': '1', 'nombre': 'Apartamento'}",235000000,20,20,1,1,0,"{'id': '1', 'nombre': 'Bogotá D.C.'}",,CHAPINERO,Chapinero,,CENTRO DE NEGOCIOS INMOBILIARIOS KELLER WILLIAMS SANTA ANA SAS,Usado,"{'lon': -74.06121, 'lat': 4.64865}",https://www.metrocuadrado.com/inmueble/venta-apartamento-bogota-chapinero-1-habitaciones-1-banos/175-M6013546,Entre 0 y 5 años,4,2025-09-20
MC5846247,"{'id': '1', 'nombre': 'Apartamento'}",580000000,72,78,1,2,2,"{'id': '1', 'nombre': 'Bogotá D.C.'}","{'id': '1', 'nombre': 'Norte'}",BELLA SUIZA,BELLA SUIZA USAQUEN   Country,770000.0,,Usado,"{'lon': -74.03259, 'lat': 4.7072845}",https://www.metrocuadrado.com/inmueble/venta-apartamento-bogota-bella-suiza-1-habitaciones-2-banos-2-garajes/MC5846247,Entre 5 y 10 años,5,2025-09-20
14033-M6054414,"{'id': '1', 'nombre': 'Apartamento'}",360000000,47,47,1,2,1,"{'id': '1', 'nombre': 'Bogotá D.C.'}","{'id': '1', 'nombre': 'Norte'}",LOS CEDRITOS,NUEVA AUTOPISTA NORTE,465000.0,INMOBILIARIA PEÑA MARIN SAS,Usado,"{'lon': -74.05, 'lat': 4.724439}",https://www.metrocuadrado.com/inmueble/venta-apartamento-bogota-los-cedritos-1-habitaciones-2-banos-1-garajes/14033-M6054414,Entre 5 y 10 años,4,2025-09-20
MC6060793,"{'id': '1', 'nombre': 'Apartamento'}",255000000,30,30,1,1,0,"{'id': '1', 'nombre': 'Bogotá D.C.'}","{'id': '4', 'nombre': 'Occidental'}",JOSE JOAQUIN VARGAS,JOTA VARGAS   Metrópolis,99500.0,,Usado,"{'lon': -74.0843, 'lat': 4.668832}",https://www.metrocuadrado.com/inmueble/venta-apartamento-bogota-jose-joaquin-vargas-1-habitaciones-1-banos/MC6060793,Entre 0 y 5 años,4,2025-09-20
212-M5454724,"{'id': '14', 'nombre': 'Apartaestudio'}",480000000,58,58,1,2,1,"{'id': '1', 'nombre': 'Bogotá D.C.'}",,SANTA PAULA,Santa Paula,740000.0,JUAN GAVIRIA RESTREPO Y CIA S.A,Usado,"{'lon': -74.03613, 'lat': 4.68676}",https://www.metrocuadrado.com/inmueble/venta-apartaestudio-bogota-santa-paula-1-habitaciones-2-banos-1-garajes/212-M5454724,Entre 5 y 10 años,5,2025-09-20
MC6055945,"{'id': '14', 'nombre': 'Apartaestudio'}",210000000,24,26,1,1,0,"{'id': '1', 'nombre': 'Bogotá D.C.'}","{'id': '4', 'nombre': 'Occidental'}",LA ESPERANZA,CIUDADELA LA FELICIDAD   Salitre Modelia,150000.0,,Usado,"{'lon': -74.12274, 'lat': 4.6624837}",https://www.metrocuadrado.com/inmueble/venta-apartaestudio-bogota-la-esperanza-1-habitaciones-1-banos/MC6055945,Entre 0 y 5 años,4,2025-09-20
