propertyId,propertyType,salePrice,area,areac,rooms,bathrooms,garages,city,zone,neighborhood,commonNeighborhood,adminPrice,companyName,propertyState,coordinates,link,builtTime,stratum,Extraction Date
MC5828385,"{'id': '1', 'nombre': 'Apartamento'}",225000000,24.0,24.0,1,1,0,"{'id': '1', 'nombre': 'Bogotá D.C.'}","{'id': '5', 'nombre': 'Centro'}",LA VERACRUZ,CENTRO LAS AGUAS   Centro y Zona Colonial,,,Usado,"{'lon': -74.07032, 'lat': 4.603298}",https://www.metrocuadrado.com/inmueble/venta-apartamento-bogota-la-veracruz-1-habitaciones-1-banos/MC5828385,Entre 0 y 5 años,3,2025-07-29
18222-M5744468,"{'id': '14', 'nombre': 'Apartaestudio'}",270000000,36.0,36.0,1,1,1,"{'id': '1', 'nombre': 'Bogotá D.C.'}","{'id': '4', 'nombre': 'Occidental'}",JOSE JOAQUIN VARGAS,JOSE JOAQUIN VARGAS,10000.0,GyG Pro Investment,Usado,"{'lon': -74.08449, 'lat': 4.6727467}",https://www.metrocuadrado.com/inmueble/venta-apartaestudio-bogota-jose-joaquin-vargas-1-habitaciones-1-banos-1-garajes/18222-M5744468,Entre 0 y 5 años,4,2025-07-29
MC5960864,"{'id': '1', 'nombre': 'Apartamento'}",430000000,40.0,47.0,1,1,1,"{'id': '1', 'nombre': 'Bogotá D.C.'}","{'id': '1', 'nombre': 'Norte'}",SANTA BARBARA OCCIDENTAL,SANTA BARBARA OCCIDENTAL   Chicó,472000.0,,Usado,"{'lon': -74.045555, 'lat': 4.6982093}",https://www.metrocuadrado.com/inmueble/venta-apartamento-bogota-santa-barbara-occidental-1-habitaciones-1-banos-1-garajes/MC5960864,Más de 20 años,6,2025-07-29
MC5818119,"{'id': '14', 'nombre': 'Apartaestudio'}",280000000,27.4,30.5,1,1,1,"{'id': '1', 'nombre': 'Bogotá D.C.'}","{'id': '2', 'nombre': 'Chapinero'}",LOS OLIVOS,CHAPINERO ALTO  ,323100.0,,Usado,"{'lon': -74.05414, 'lat': 4.6441975}",https://www.metrocuadrado.com/inmueble/venta-apartaestudio-bogota-los-olivos-1-habitaciones-1-banos-1-garajes/MC5818119,Entre 0 y 5 años,4,2025-07-29
MC5835258,"{'id': '14', 'nombre': 'Apartaestudio'}",320000000,38.0,38.0,1,1,0,"{'id': '1', 'nombre': 'Bogotá D.C.'}","{'id': '4', 'nombre': 'Occidental'}",GRAN AMERICA,GRAN AMERICA   La Soledad,180000.0,,Usado,"{'lon': -74.08504, 'lat': 4.627664}",https://www.metrocuadrado.com/inmueble/venta-apartaestudio-bogota-gran-america-1-habitaciones-1-banos/MC5835258,Entre 10 y 20 años,4,2025-07-29
