propertyId,propertyType,salePrice,area,areac,rooms,bathrooms,garages,city,zone,neighborhood,commonNeighborhood,adminPrice,companyName,propertyState,coordinates,link,builtTime,stratum,Extraction Date
22278-M6496512,"{'id': '14', 'nombre': 'Apartaestudio'}",585000000,43.63,43.63,1,1,0,"{'id': '3', 'nombre': 'Medellín'}",,SANTA TERESITA,Santa Teresita,,Habitar Propiedad Raíz,Usado,"{'lon': -75.59728, 'lat': 6.2427497}",https://www.metrocuadrado.com/inmueble/venta-apartaestudio-medellin-santa-teresita-1-habitaciones-1-banos/22278-M6496512,Entre 0 y 5 años,5,2026-07-18
23102-M6772341,"{'id': '1', 'nombre': 'Apartamento'}",750000000,70.0,70.0,1,2,1,"{'id': '3', 'nombre': 'Medellín'}",,NA,Ciudad Del Rio,530000.0,JEFFERSON PALACIO PATIÑO,Usado,"{'lon': 0, 'lat': 0}",https://www.metrocuadrado.com/inmueble/venta-apartamento-medellin-na-1-habitaciones-2-banos-1-garajes/23102-M6772341,Entre 0 y 5 años,5,2026-07-18
22365-M6709947,"{'id': '14', 'nombre': 'Apartaestudio'}",750000000,62.0,62.0,1,2,1,"{'id': '3', 'nombre': 'Medellín'}",,POBLADO,Poblado,670000.0,LUXO CAPITAL S.A.S,Usado,"{'lon': -75.56582, 'lat': 6.2476377}",https://www.metrocuadrado.com/inmueble/venta-apartaestudio-medellin-poblado-1-habitaciones-2-banos-1-garajes/22365-M6709947,Entre 0 y 5 años,6,2026-07-18
18954-M6790623,"{'id': '14', 'nombre': 'Apartaestudio'}",525000000,26.0,26.0,1,1,0,"{'id': '3', 'nombre': 'Medellín'}","{'id': '38', 'nombre': 'Suroriente'}",ASTORGA,EL POBLADO PARQUE,400000.0,Carolina Úsuga Finanzas Inmobiliarias,Usado,"{'lon': -75.57241, 'lat': 6.2112427}",https://www.metrocuadrado.com/inmueble/venta-apartaestudio-medellin-astorga-1-habitaciones-1-banos/18954-M6790623,Entre 0 y 5 años,6,2026-07-18
22583-M6861577,"{'id': '1', 'nombre': 'Apartamento'}",800000000,98.0,68.0,1,2,1,"{'id': '3', 'nombre': 'Medellín'}",,POBLADO,Poblado,578000.0,INVERSIONES ALVAREZ CUELLO S.A.S.,Usado,"{'lon': -75.5804, 'lat': 6.2224}",https://www.metrocuadrado.com/inmueble/venta-apartamento-medellin-poblado-1-habitaciones-2-banos-1-garajes/22583-M6861577,Entre 5 y 10 años,5,2026-07-18
12116-M6687288,"{'id': '1', 'nombre': 'Apartamento'}",460000000,51.0,51.0,1,2,1,"{'id': '3', 'nombre': 'Medellín'}","{'id': '35', 'nombre': 'Noroccidente'}",LAURELES,LAURELES,529000.0,GRUPO INMOBILIARIO CABAL SAS,Usado,"{'lon': -75.59602, 'lat': 6.242311}",https://www.metrocuadrado.com/inmueble/venta-apartamento-medellin-laureles-1-habitaciones-2-banos-1-garajes/12116-M6687288,Más de 20 años,5,2026-07-18
