propertyId,propertyType,salePrice,area,areac,rooms,bathrooms,garages,city,zone,neighborhood,commonNeighborhood,adminPrice,companyName,propertyState,coordinates,link,builtTime,stratum,Extraction Date
4186-M6161755,"{'id': '1', 'nombre': 'Apartamento'}",425000000,43.0,43.0,1,2,1,"{'id': '1', 'nombre': 'Bogotá D.C.'}",,CENTRO INTERNACIONAL,Centro Internacional,,CITTA GESTION INMOBILIARIA,Usado,"{'lon': -74.067, 'lat': 4.61937}",https://www.metrocuadrado.com/inmueble/venta-apartamento-bogota-centro-internacional-1-habitaciones-2-banos-1-garajes/4186-M6161755,Entre 5 y 10 años,4,2026-01-05
MC5702809,"{'id': '1', 'nombre': 'Apartamento'}",330000000,23.0,21.0,1,1,0,"{'id': '1', 'nombre': 'Bogotá D.C.'}","{'id': '1', 'nombre': 'Norte'}",RINCON DEL CHICO,CHICO SANTA BARBARA   Chicó,270000.0,,Usado,"{'lon': -74.04731, 'lat': 4.685714}",https://www.metrocuadrado.com/inmueble/venta-apartamento-bogota-rincon-del-chico-1-habitaciones-1-banos/MC5702809,Entre 0 y 5 años,5,2026-01-05
14271-M5773776,"{'id': '14', 'nombre': 'Apartaestudio'}",234000000,27.0,27.0,1,1,0,"{'id': '1', 'nombre': 'Bogotá D.C.'}","{'id': '5', 'nombre': 'Centro'}",LAS NIEVES,CENTRO INTERNACIONAL ,425000.0,El Olimpo Inmobiliaria,Usado,"{'lon': -74.07126, 'lat': 4.610952}",https://www.metrocuadrado.com/inmueble/venta-apartaestudio-bogota-las-nieves-1-habitaciones-1-banos/14271-M5773776,Entre 0 y 5 años,3,2026-01-05
14271-M5755542,"{'id': '1', 'nombre': 'Apartamento'}",220000000,30.0,30.0,1,1,0,"{'id': '1', 'nombre': 'Bogotá D.C.'}","{'id': '1', 'nombre': 'Norte'}",A S D ,north point 2,178740.0,El Olimpo Inmobiliaria,Usado,"{'lon': -74.023506, 'lat': 4.7276716}",https://www.metrocuadrado.com/inmueble/venta-apartamento-bogota-a.s.d.-1-habitaciones-1-banos/14271-M5755542,Entre 0 y 5 años,4,2026-01-05
20134-M6084230,"{'id': '1', 'nombre': 'Apartamento'}",235000000,33.0,33.0,1,1,1,"{'id': '1', 'nombre': 'Bogotá D.C.'}","{'id': '4', 'nombre': 'Occidental'}",PRIMAVERA OCCIDENTAL,PUENTE ARANDA,134070.0,DEYCI MARIA ALVAREZ HERNANDEZ,Usado,"{'lon': -74.107765, 'lat': 4.61436}",https://www.metrocuadrado.com/inmueble/venta-apartamento-bogota-primavera-occidental-1-habitaciones-1-banos-1-garajes/20134-M6084230,Entre 0 y 5 años,3,2026-01-05
3553-M5693997,"{'id': '1', 'nombre': 'Apartamento'}",410000000,45.0,45.0,1,1,1,"{'id': '1', 'nombre': 'Bogotá D.C.'}","{'id': '2', 'nombre': 'Chapinero'}",LA SALLE,CHAPINERO ALTO,650000.0,Bulevar Inmobiliario,Usado,"{'lon': -74.05936, 'lat': 4.6436744}",https://www.metrocuadrado.com/inmueble/venta-apartamento-bogota-la-salle-1-habitaciones-1-banos-1-garajes/3553-M5693997,Entre 10 y 20 años,4,2026-01-05
2266-M5776069,"{'id': '14', 'nombre': 'Apartaestudio'}",285000000,21.0,21.0,1,1,0,"{'id': '1', 'nombre': 'Bogotá D.C.'}",,CHICO,Chico,330000.0,Boutique de Bienes Raices,Usado,"{'lon': -74.05714, 'lat': 4.6842384}",https://www.metrocuadrado.com/inmueble/venta-apartaestudio-bogota-chico-1-habitaciones-1-banos/2266-M5776069,Entre 0 y 5 años,6,2026-01-05
21407-M6142327,"{'id': '14', 'nombre': 'Apartaestudio'}",380000000,39.47,42.0,1,1,1,"{'id': '1', 'nombre': 'Bogotá D.C.'}","{'id': '5', 'nombre': 'Centro'}",LA MACARENA,LA MACARENA,240000.0,CARLOS ANDRES URIBE  SANCHEZ,Usado,"{'lon': -74.065346, 'lat': 4.615279}",https://www.metrocuadrado.com/inmueble/venta-apartaestudio-bogota-la-macarena-1-habitaciones-1-banos-1-garajes/21407-M6142327,Entre 5 y 10 años,4,2026-01-05
5255-M5723650,"{'id': '1', 'nombre': 'Apartamento'}",610000000,29.2,45.81,1,2,1,"{'id': '1', 'nombre': 'Bogotá D.C.'}","{'id': '3', 'nombre': 'Noroccidente'}",POLO CLUB,POLO,610000.0,Patricia Rangel Enciso,Usado,"{'lon': -74.06415, 'lat': 4.6710587}",https://www.metrocuadrado.com/inmueble/venta-apartamento-bogota-polo-club-1-habitaciones-2-banos-1-garajes/5255-M5723650,Entre 0 y 5 años,4,2026-01-05
874-M5965606,"{'id': '1', 'nombre': 'Apartamento'}",235000000,35.0,35.0,1,1,0,"{'id': '1', 'nombre': 'Bogotá D.C.'}","{'id': '1', 'nombre': 'Norte'}",EL REDIL,LA GRANJA NORTE,170000.0,A5 Asesorias e Inversiones Inmobiliarias,Usado,"{'lon': -74.02667, 'lat': 4.7478776}",https://www.metrocuadrado.com/inmueble/venta-apartamento-bogota-el-redil-1-habitaciones-1-banos/874-M5965606,Entre 0 y 5 años,4,2026-01-05
2671-M5836380,"{'id': '1', 'nombre': 'Apartamento'}",3100000000,162.02,162.02,1,2,3,"{'id': '1', 'nombre': 'Bogotá D.C.'}",,CHICO MUSEO,Chico Museo,1936000.0,Engel u0026 Volkers,Usado,"{'lon': -74.04566, 'lat': 4.673076}",https://www.metrocuadrado.com/inmueble/venta-apartamento-bogota-chico-museo-1-habitaciones-2-banos-3-garajes/2671-M5836380,Entre 0 y 5 años,6,2026-01-05
20485-M6122837,"{'id': '14', 'nombre': 'Apartaestudio'}",215000000,35.0,35.0,1,1,1,"{'id': '1', 'nombre': 'Bogotá D.C.'}","{'id': '1', 'nombre': 'Norte'}",SANTA TERESA,EL REDIL,150000.0,Beatriz Pardo,Usado,"{'lon': -74.02751, 'lat': 4.7475185}",https://www.metrocuadrado.com/inmueble/venta-apartaestudio-bogota-santa-teresa-1-habitaciones-1-banos-1-garajes/20485-M6122837,Entre 0 y 5 años,4,2026-01-05
20804-M6007176,"{'id': '1', 'nombre': 'Apartamento'}",465000000,54.38,59.23,1,2,1,"{'id': '1', 'nombre': 'Bogotá D.C.'}","{'id': '1', 'nombre': 'Norte'}",,CEDRITOS,460000.0,Saleme u0026 Asociados Soluciones Inmobiliarias ,Usado,"{'lon': -74.04246, 'lat': 4.7270746}",https://www.metrocuadrado.com/inmueble/venta-apartamento-bogota-1-habitaciones-2-banos-1-garajes/20804-M6007176,Entre 5 y 10 años,4,2026-01-05
14271-M4703531,"{'id': '1', 'nombre': 'Apartamento'}",290000000,26.0,26.0,1,1,0,"{'id': '1', 'nombre': 'Bogotá D.C.'}","{'id': '2', 'nombre': 'Chapinero'}",CHAPINERO CENTRAL,CHAPINERO,300000.0,El Olimpo Inmobiliaria,Usado,"{'lon': -74.06401, 'lat': 4.643236}",https://www.metrocuadrado.com/inmueble/venta-apartamento-bogota-chapinero-central-1-habitaciones-1-banos/14271-M4703531,Entre 0 y 5 años,3,2026-01-05
14271-M5493855,"{'id': '14', 'nombre': 'Apartaestudio'}",420000000,30.0,30.0,1,1,0,"{'id': '1', 'nombre': 'Bogotá D.C.'}","{'id': '1', 'nombre': 'Norte'}",CJR QUO 97,CHICO,0.0,El Olimpo Inmobiliaria,Usado,"{'lon': -74.04711, 'lat': 4.6815715}",https://www.metrocuadrado.com/inmueble/venta-apartaestudio-bogota-cjr-quo-97-1-habitaciones-1-banos/14271-M5493855,Entre 0 y 5 años,6,2026-01-05
