propertyId,propertyType,salePrice,area,areac,rooms,bathrooms,garages,city,zone,neighborhood,commonNeighborhood,adminPrice,companyName,propertyState,coordinates,link,builtTime,stratum,Extraction Date
20225-M6008404,"{'id': '1', 'nombre': 'Apartamento'}",593000000,48,50,1,2,1,"{'id': '3', 'nombre': 'Medellín'}","{'id': '38', 'nombre': 'Suroriente'}",SIMESA,CIUDAD DEL RIO,400000,EMD GRUPO EMPRESARIAL  SAS,Usado,"{'lon': -75.57352, 'lat': 6.2208376}",https://www.metrocuadrado.com/inmueble/venta-apartamento-medellin-simesa-1-habitaciones-2-banos-1-garajes/20225-M6008404,Entre 0 y 5 años,5,2025-09-14
17134-M5539885,"{'id': '1', 'nombre': 'Apartamento'}",400000000,70,70,1,2,1,"{'id': '3', 'nombre': 'Medellín'}","{'id': '35', 'nombre': 'Noroccidente'}",LAURELES,LAURELES,340000,RICARDO ÁNGEL B. VENTA DE PROPIEDAD RAIZ,Usado,"{'lon': -75.596146, 'lat': 6.24311}",https://www.metrocuadrado.com/inmueble/venta-apartamento-medellin-laureles-1-habitaciones-2-banos-1-garajes/17134-M5539885,Entre 10 y 20 años,4,2025-09-14
16642-M5809102,"{'id': '1', 'nombre': 'Apartamento'}",890000000,79,79,1,2,1,"{'id': '3', 'nombre': 'Medellín'}","{'id': '102', 'nombre': 'Otros'}",SIMESA,CIUDAD DEL RIO,587000,BODEGAS MAGNO INVERSIONES,Usado,"{'lon': -75.573235, 'lat': 6.224265}",https://www.metrocuadrado.com/inmueble/venta-apartamento-medellin-simesa-1-habitaciones-2-banos-1-garajes/16642-M5809102,Entre 0 y 5 años,5,2025-09-14
687-M4338620,"{'id': '1', 'nombre': 'Apartamento'}",830000000,88,88,1,3,2,"{'id': '3', 'nombre': 'Medellín'}","{'id': '38', 'nombre': 'Suroriente'}",LOS BALSOS NO 1,EL POBLADO,600000,PROINTEGRAL SA,Usado,"{'lon': -75.55982, 'lat': 6.18808}",https://www.metrocuadrado.com/inmueble/venta-apartamento-medellin-los-balsos-no.1-1-habitaciones-3-banos-2-garajes/687-M4338620,Entre 0 y 5 años,6,2025-09-14
20219-M5996168,"{'id': '14', 'nombre': 'Apartaestudio'}",700000000,57,57,1,1,1,"{'id': '3', 'nombre': 'Medellín'}","{'id': '38', 'nombre': 'Suroriente'}",LOS NARANJOS,Los Balsos,380000,INMOLUXURY REALTY,Usado,"{'lon': -75.5624, 'lat': 6.193805}",https://www.metrocuadrado.com/inmueble/venta-apartaestudio-medellin-los-naranjos-1-habitaciones-1-banos-1-garajes/20219-M5996168,Entre 0 y 5 años,6,2025-09-14
19797-M5986587,"{'id': '1', 'nombre': 'Apartamento'}",410000000,30,30,1,1,1,"{'id': '3', 'nombre': 'Medellín'}",,EL POBLADO,El Poblado,260000,HOMES INMOBILIARIA,Usado,"{'lon': -75.576195, 'lat': 6.18559}",https://www.metrocuadrado.com/inmueble/venta-apartamento-medellin-el-poblado-1-habitaciones-1-banos-1-garajes/19797-M5986587,Entre 5 y 10 años,6,2025-09-14
20778-M6002499,"{'id': '14', 'nombre': 'Apartaestudio'}",345000000,54,54,1,1,1,"{'id': '3', 'nombre': 'Medellín'}",,CALASANZ PARTE BAJA,Calasanz Parte Baja,70000,MARIA CLAUDIA RENDON GARCIA,Usado,"{'lon': -75.599266, 'lat': 6.2643404}",https://www.metrocuadrado.com/inmueble/venta-apartaestudio-medellin-calasanz-parte-baja-1-habitaciones-1-banos-1-garajes/20778-M6002499,Entre 5 y 10 años,5,2025-09-14
20033-M5815788,"{'id': '1', 'nombre': 'Apartamento'}",360000000,38,38,1,1,1,"{'id': '3', 'nombre': 'Medellín'}","{'id': '37', 'nombre': 'Suroccidente'}",LA GLORIA,Belen,412000,AGENCIA INMOBILIARIA,Usado,"{'lon': -75.60164, 'lat': 6.220641}",https://www.metrocuadrado.com/inmueble/venta-apartamento-medellin-la-gloria-1-habitaciones-1-banos-1-garajes/20033-M5815788,Entre 5 y 10 años,4,2025-09-14
