propertyId,propertyType,salePrice,area,areac,rooms,bathrooms,garages,city,zone,neighborhood,commonNeighborhood,adminPrice,companyName,propertyState,coordinates,link,builtTime,stratum,Extraction Date
4660-M5007635,"{'id': '1', 'nombre': 'Apartamento'}",273000000,30.0,30.0,1,1,0,"{'id': '1', 'nombre': 'Bogotá D.C.'}",,CHAPINERO NORTE,Chapinero Norte,270400.0,SU PROPIEDAD,Usado,"{'lon': -74.0647, 'lat': 4.63353}",https://www.metrocuadrado.com/inmueble/venta-apartamento-bogota-chapinero-norte-1-habitaciones-1-banos/4660-M5007635,Más de 20 años,4,2025-10-30
MC6050420,"{'id': '1', 'nombre': 'Apartamento'}",240000000,35.0,35.0,1,1,0,"{'id': '1', 'nombre': 'Bogotá D.C.'}","{'id': '4', 'nombre': 'Occidental'}",EL RECUERDO   EDIF EL RECUERDO VI,el recuerdo teusaquillo   Centro Nariño,420000.0,,Usado,"{'lon': -74.08925, 'lat': 4.632987}",https://www.metrocuadrado.com/inmueble/venta-apartamento-bogota-el-recuerdo-edif-el-recuerdo-vi-1-habitaciones-1-banos/MC6050420,Más de 20 años,4,2025-10-30
20179-M6001673,"{'id': '14', 'nombre': 'Apartaestudio'}",224500000,39.18,43.35,1,1,0,"{'id': '1', 'nombre': 'Bogotá D.C.'}",,JORGE ELIECER GAITAN,Jorge Eliecer Gaitan,40000.0,DL PROYECTOS INMOBILIARIOS,Usado,"{'lon': -74.07199, 'lat': 4.6745157}",https://www.metrocuadrado.com/inmueble/venta-apartaestudio-bogota-jorge-eliecer-gaitan-1-habitaciones-1-banos/20179-M6001673,Entre 0 y 5 años,3,2025-10-30
MC6126108,"{'id': '14', 'nombre': 'Apartaestudio'}",340000000,32.0,32.0,1,1,0,"{'id': '1', 'nombre': 'Bogotá D.C.'}","{'id': '5', 'nombre': 'Centro'}",SAN MARTIN,SAN MARTIN CENTRO   Centro y Zona Colonial,170000.0,,Usado,"{'lon': -74.06656, 'lat': 4.6178226}",https://www.metrocuadrado.com/inmueble/venta-apartaestudio-bogota-san-martin-1-habitaciones-1-banos/MC6126108,Entre 0 y 5 años,3,2025-10-30
MC6122061,"{'id': '1', 'nombre': 'Apartamento'}",270000000,50.0,50.0,1,1,1,"{'id': '1', 'nombre': 'Bogotá D.C.'}","{'id': '1', 'nombre': 'Norte'}",SAN GABRIEL NORTE,ALTOS DE BELLA SUIZA   Zona Urbana,320000.0,,Usado,"{'lon': -74.02581, 'lat': 4.704885}",https://www.metrocuadrado.com/inmueble/venta-apartamento-bogota-san-gabriel-norte-1-habitaciones-1-banos-1-garajes/MC6122061,Más de 20 años,4,2025-10-30
MC6093339,"{'id': '1', 'nombre': 'Apartamento'}",575000000,54.64,57.76,1,2,1,"{'id': '1', 'nombre': 'Bogotá D.C.'}","{'id': '2', 'nombre': 'Chapinero'}",BOSQUE CALDERON,BOSQUE CALDERON   Chapinero Alto,448400.0,,Usado,"{'lon': -74.0601, 'lat': 4.6421747}",https://www.metrocuadrado.com/inmueble/venta-apartamento-bogota-bosque-calderon-1-habitaciones-2-banos-1-garajes/MC6093339,Entre 5 y 10 años,4,2025-10-30
MC6119366,"{'id': '14', 'nombre': 'Apartaestudio'}",274000000,24.0,24.0,1,1,1,"{'id': '1', 'nombre': 'Bogotá D.C.'}","{'id': '1', 'nombre': 'Norte'}",UB  SANTA COLOMA,LA CALLEJA,247000.0,,Usado,"{'lon': -74.04834, 'lat': 4.7162323}",https://www.metrocuadrado.com/inmueble/venta-apartaestudio-bogota-ub.-santa-coloma-1-habitaciones-1-banos-1-garajes/MC6119366,Más de 20 años,5,2025-10-30
15955-M6054238,"{'id': '1', 'nombre': 'Apartamento'}",345000000,38.0,38.0,1,1,1,"{'id': '1', 'nombre': 'Bogotá D.C.'}","{'id': '1', 'nombre': 'Norte'}",LOS CEDRITOS,CEDRITOS,324000.0,INNOVAR Y ASESORIAS,Usado,"{'lon': -74.04275, 'lat': 4.7279844}",https://www.metrocuadrado.com/inmueble/venta-apartamento-bogota-los-cedritos-1-habitaciones-1-banos-1-garajes/15955-M6054238,Entre 10 y 20 años,4,2025-10-30
15955-M6115098,"{'id': '1', 'nombre': 'Apartamento'}",430000000,55.0,55.0,1,2,1,"{'id': '1', 'nombre': 'Bogotá D.C.'}","{'id': '1', 'nombre': 'Norte'}",CEDRITOS,CEDRITOS,300000.0,INNOVAR Y ASESORIAS,Usado,"{'lon': -74.039505, 'lat': 4.722804}",https://www.metrocuadrado.com/inmueble/venta-apartamento-bogota-cedritos-1-habitaciones-2-banos-1-garajes/15955-M6115098,Entre 5 y 10 años,4,2025-10-30
MC6033277,"{'id': '1', 'nombre': 'Apartamento'}",240000000,32.9,33.0,1,1,0,"{'id': '1', 'nombre': 'Bogotá D.C.'}","{'id': '2', 'nombre': 'Chapinero'}",ALFONSO LOPEZ   EDIF KALBALI,GALERIAS   Chapinero,166000.0,,Usado,"{'lon': -74.07679, 'lat': 4.6406927}",https://www.metrocuadrado.com/inmueble/venta-apartamento-bogota-alfonso-lopez-edif-kalbali-1-habitaciones-1-banos/MC6033277,Entre 5 y 10 años,4,2025-10-30
MC6034779,"{'id': '1', 'nombre': 'Apartamento'}",274000000,24.0,24.0,1,1,1,"{'id': '1', 'nombre': 'Bogotá D.C.'}","{'id': '1', 'nombre': 'Norte'}",UB  SANTA COLOMA,LA CALLEJA   Country,247000.0,,Usado,"{'lon': -74.04834, 'lat': 4.7162323}",https://www.metrocuadrado.com/inmueble/venta-apartamento-bogota-ub.-santa-coloma-1-habitaciones-1-banos-1-garajes/MC6034779,Más de 20 años,5,2025-10-30
MC6117508,"{'id': '14', 'nombre': 'Apartaestudio'}",400000000,36.0,42.0,1,2,0,"{'id': '1', 'nombre': 'Bogotá D.C.'}","{'id': '1', 'nombre': 'Norte'}",SANTA BIBIANA,CHICO NAVARRA   Zona Urbana,0.0,,Usado,"{'lon': -74.051575, 'lat': 4.6878686}",https://www.metrocuadrado.com/inmueble/venta-apartaestudio-bogota-santa-bibiana-1-habitaciones-2-banos/MC6117508,Entre 0 y 5 años,6,2025-10-30
MC6122405,"{'id': '1', 'nombre': 'Apartamento'}",350000000,45.0,49.0,1,1,0,"{'id': '1', 'nombre': 'Bogotá D.C.'}","{'id': '2', 'nombre': 'Chapinero'}",PALERMO   EDIF ZEQUISCUA,PALERMO   Chapinero,170000.0,,Usado,"{'lon': -74.06989, 'lat': 4.633395}",https://www.metrocuadrado.com/inmueble/venta-apartamento-bogota-palermo-edif-zequiscua-1-habitaciones-1-banos/MC6122405,Más de 20 años,4,2025-10-30
21373-M6116336,"{'id': '1', 'nombre': 'Apartamento'}",720000000,51.0,51.0,1,1,1,"{'id': '1', 'nombre': 'Bogotá D.C.'}",,CHICO,Chico,,AVANTA INMOBILIARIA,Usado,"{'lon': -74.05818, 'lat': 4.673686}",https://www.metrocuadrado.com/inmueble/venta-apartamento-bogota-chico-1-habitaciones-1-banos-1-garajes/21373-M6116336,Entre 0 y 5 años,5,2025-10-30
20387-M5846623,"{'id': '14', 'nombre': 'Apartaestudio'}",750000000,90.0,91.68,1,1,1,"{'id': '1', 'nombre': 'Bogotá D.C.'}","{'id': '102', 'nombre': 'Otros'}",SANTA SOFIA,POLO CLUB,310000.0,LOMAZ HOME,Usado,"{'lon': -74.065315, 'lat': 4.6713424}",https://www.metrocuadrado.com/inmueble/venta-apartaestudio-bogota-santa-sofia-1-habitaciones-1-banos-1-garajes/20387-M5846623,Entre 0 y 5 años,4,2025-10-30
