propertyId,propertyType,salePrice,area,areac,rooms,bathrooms,garages,city,zone,neighborhood,commonNeighborhood,adminPrice,companyName,propertyState,coordinates,link,builtTime,stratum,Extraction Date
3894-M6124430,"{'id': '1', 'nombre': 'Apartamento'}",140000000,23.0,23.0,1,1,0,"{'id': '1', 'nombre': 'Bogotá D.C.'}","{'id': '4', 'nombre': 'Occidental'}",EL REAL,BOYACA REAL,230000.0,Stella Cuervo,Usado,"{'lon': -74.10103, 'lat': 4.6819844}",https://www.metrocuadrado.com/inmueble/venta-apartamento-bogota-el-real-1-habitaciones-1-banos/3894-M6124430,Entre 5 y 10 años,3,2025-11-08
20343-M5837172,"{'id': '1', 'nombre': 'Apartamento'}",550000000,46.27,51.55,1,1,1,"{'id': '1', 'nombre': 'Bogotá D.C.'}","{'id': '2', 'nombre': 'Chapinero'}",PARDO RUBIO,CHAPINERO ALTO,390000.0,ALQUIDEL BIENES RAICES SAS,Usado,"{'lon': -74.061676, 'lat': 4.63735}",https://www.metrocuadrado.com/inmueble/venta-apartamento-bogota-pardo-rubio-1-habitaciones-1-banos-1-garajes/20343-M5837172,Entre 5 y 10 años,4,2025-11-08
19579-M5661682,"{'id': '1', 'nombre': 'Apartamento'}",623005122,60.43,60.43,1,2,1,"{'id': '1', 'nombre': 'Bogotá D.C.'}","{'id': '1', 'nombre': 'Norte'}",CJR DECO 120,Santa Barbara,,KVEINTIUNO,Usado,"{'lon': -74.04703, 'lat': 4.700733}",https://www.metrocuadrado.com/inmueble/venta-apartamento-bogota-cjr-deco-120-1-habitaciones-2-banos-1-garajes/19579-M5661682,Entre 0 y 5 años,6,2025-11-08
19579-M5940127,"{'id': '1', 'nombre': 'Apartamento'}",1600000000,132.0,155.0,1,2,2,"{'id': '1', 'nombre': 'Bogotá D.C.'}",,CHICO,Chico,1800000.0,KVEINTIUNO,Usado,"{'lon': -74.055565, 'lat': 4.6777077}",https://www.metrocuadrado.com/inmueble/venta-apartamento-bogota-chico-1-habitaciones-2-banos-2-garajes/19579-M5940127,Entre 0 y 5 años,6,2025-11-08
12673-M5839987,"{'id': '1', 'nombre': 'Apartamento'}",780000000,84.0,84.0,1,2,1,"{'id': '1', 'nombre': 'Bogotá D.C.'}","{'id': '1', 'nombre': 'Norte'}",LOS ROSALES,El Nogal,1083500.0,XIMENA FALLON,Usado,"{'lon': -74.05009, 'lat': 4.659961}",https://www.metrocuadrado.com/inmueble/venta-apartamento-bogota-los-rosales-1-habitaciones-2-banos-1-garajes/12673-M5839987,Más de 20 años,6,2025-11-08
15942-M6125135,"{'id': '1', 'nombre': 'Apartamento'}",250000000,33.0,33.0,1,1,1,"{'id': '1', 'nombre': 'Bogotá D.C.'}","{'id': '5', 'nombre': 'Centro'}",BOSQUE IZQUIERDO,CENTRO LA MACARENA,334000.0,ALMA ANALIDA DELGADO FUENTES,Usado,"{'lon': -74.066444, 'lat': 4.6097426}",https://www.metrocuadrado.com/inmueble/venta-apartamento-bogota-bosque-izquierdo-1-habitaciones-1-banos-1-garajes/15942-M6125135,Entre 10 y 20 años,3,2025-11-08
MC6119366,"{'id': '14', 'nombre': 'Apartaestudio'}",275000000,24.0,24.0,1,1,1,"{'id': '1', 'nombre': 'Bogotá D.C.'}","{'id': '1', 'nombre': 'Norte'}",UB  SANTA COLOMA,LA CALLEJA,247000.0,,Usado,"{'lon': -74.04834, 'lat': 4.7162323}",https://www.metrocuadrado.com/inmueble/venta-apartaestudio-bogota-ub.-santa-coloma-1-habitaciones-1-banos-1-garajes/MC6119366,Más de 20 años,5,2025-11-08
MC6034779,"{'id': '1', 'nombre': 'Apartamento'}",275000000,24.0,24.0,1,1,1,"{'id': '1', 'nombre': 'Bogotá D.C.'}","{'id': '1', 'nombre': 'Norte'}",UB  SANTA COLOMA,LA CALLEJA   Country,247000.0,,Usado,"{'lon': -74.04834, 'lat': 4.7162323}",https://www.metrocuadrado.com/inmueble/venta-apartamento-bogota-ub.-santa-coloma-1-habitaciones-1-banos-1-garajes/MC6034779,Más de 20 años,5,2025-11-08
MC6074290,"{'id': '1', 'nombre': 'Apartamento'}",339000000,48.0,51.0,1,1,1,"{'id': '1', 'nombre': 'Bogotá D.C.'}","{'id': '1', 'nombre': 'Norte'}",SANTA TERESA,SANTA TERESA NORTE   Orquídeas,256000.0,,Usado,"{'lon': -74.02547, 'lat': 4.7456927}",https://www.metrocuadrado.com/inmueble/venta-apartamento-bogota-santa-teresa-1-habitaciones-1-banos-1-garajes/MC6074290,Entre 5 y 10 años,3,2025-11-08
MC6133642,"{'id': '1', 'nombre': 'Apartamento'}",310000000,28.24,31.25,1,1,0,"{'id': '1', 'nombre': 'Bogotá D.C.'}","{'id': '5', 'nombre': 'Centro'}",SAMPER,SAMPER   Centro Internacional,165000.0,,Usado,"{'lon': -74.06809, 'lat': 4.6215887}",https://www.metrocuadrado.com/inmueble/venta-apartamento-bogota-samper-1-habitaciones-1-banos/MC6133642,Entre 0 y 5 años,3,2025-11-08
20486-M5857464,"{'id': '14', 'nombre': 'Apartaestudio'}",350000000,51.72,51.72,1,1,1,"{'id': '1', 'nombre': 'Bogotá D.C.'}","{'id': '4', 'nombre': 'Occidental'}",JAZMIN ET II,PASADENA OTRO,336000.0,Camilo Sánchez,Usado,"{'lon': -74.11836, 'lat': 4.608036}",https://www.metrocuadrado.com/inmueble/venta-apartaestudio-bogota-jazmin-et-ii-1-habitaciones-1-banos-1-garajes/20486-M5857464,Entre 10 y 20 años,5,2025-11-08
MC5857753,"{'id': '1', 'nombre': 'Apartamento'}",330000000,32.0,32.0,1,1,0,"{'id': '1', 'nombre': 'Bogotá D.C.'}","{'id': '2', 'nombre': 'Chapinero'}",SUCRE,chapinero la javeriana   Chapinero Alto,310000.0,,Usado,"{'lon': -74.06549, 'lat': 4.6307592}",https://www.metrocuadrado.com/inmueble/venta-apartamento-bogota-sucre-1-habitaciones-1-banos/MC5857753,Entre 5 y 10 años,4,2025-11-08
MC6067766,"{'id': '1', 'nombre': 'Apartamento'}",198000000,28.0,28.0,1,1,0,"{'id': '1', 'nombre': 'Bogotá D.C.'}","{'id': '5', 'nombre': 'Centro'}",SANTA BARBARA,LA CANDELARIA CENTRO   Centro y Zona Colonial,145000.0,,Usado,"{'lon': -74.07363, 'lat': 4.5929213}",https://www.metrocuadrado.com/inmueble/venta-apartamento-bogota-santa-barbara-1-habitaciones-1-banos/MC6067766,Entre 0 y 5 años,2,2025-11-08
19657-M6099380,"{'id': '1', 'nombre': 'Apartamento'}",950000000,90.0,110.0,1,2,2,"{'id': '1', 'nombre': 'Bogotá D.C.'}","{'id': '1', 'nombre': 'Norte'}",LISBOA,LISBOA NUEVO COUNTRY,650000.0,MILPORCIENTO SAS,Usado,"{'lon': -74.03725, 'lat': 4.714509}",https://www.metrocuadrado.com/inmueble/venta-apartamento-bogota-lisboa-1-habitaciones-2-banos-2-garajes/19657-M6099380,Entre 0 y 5 años,5,2025-11-08
