propertyId,propertyType,salePrice,area,areac,rooms,bathrooms,garages,city,zone,neighborhood,commonNeighborhood,adminPrice,companyName,propertyState,coordinates,link,builtTime,stratum,Extraction Date
14473-M6244385,"{'id': '1', 'nombre': 'Apartamento'}",430000000,52,52,1,1,1,"{'id': '3', 'nombre': 'Medellín'}","{'id': '37', 'nombre': 'Suroccidente'}",EL RINCON,LOMA DE LOS BERNAL,350000,INMOBILIARIA AL SUR S.A.S,Usado,"{'lon': -75.60585, 'lat': 6.2159758}",https://www.metrocuadrado.com/inmueble/venta-apartamento-medellin-el-rincon-1-habitaciones-1-banos-1-garajes/14473-M6244385,Entre 5 y 10 años,4,2026-01-09
21505-M6164838,"{'id': '1', 'nombre': 'Apartamento'}",750000000,50,50,1,2,1,"{'id': '3', 'nombre': 'Medellín'}","{'id': '38', 'nombre': 'Suroriente'}",EL POBLADO,EL POBLADO PROVENZA,502000,Osma Consultores Inmobiliarios,Usado,"{'lon': -75.56584, 'lat': 6.2075067}",https://www.metrocuadrado.com/inmueble/venta-apartamento-medellin-el-poblado-1-habitaciones-2-banos-1-garajes/21505-M6164838,Entre 5 y 10 años,6,2026-01-09
16487-M6134972,"{'id': '1', 'nombre': 'Apartamento'}",578000000,48,48,1,1,1,"{'id': '3', 'nombre': 'Medellín'}",,EL POBLADO,El Poblado,390000,Inmobiliaria Casa Liberty,Usado,"{'lon': -75.57435, 'lat': 6.2244}",https://www.metrocuadrado.com/inmueble/venta-apartamento-medellin-el-poblado-1-habitaciones-1-banos-1-garajes/16487-M6134972,Entre 0 y 5 años,5,2026-01-09
11976-M6052200,"{'id': '1', 'nombre': 'Apartamento'}",740000000,79,79,1,2,1,"{'id': '3', 'nombre': 'Medellín'}","{'id': '38', 'nombre': 'Suroriente'}",VILLA CARLOTA,Ciudad Del Rio,630000,ALEXANDRA SUAREZ BIENES RAICES,Usado,"{'lon': -75.57307, 'lat': 6.223965}",https://www.metrocuadrado.com/inmueble/venta-apartamento-medellin-villa-carlota-1-habitaciones-2-banos-1-garajes/11976-M6052200,Entre 0 y 5 años,5,2026-01-09
687-M6044687,"{'id': '1', 'nombre': 'Apartamento'}",720000000,75,75,1,2,1,"{'id': '3', 'nombre': 'Medellín'}","{'id': '38', 'nombre': 'Suroriente'}",SAN LUCAS,EL POBLADO,653000,PROINTEGRAL SA,Usado,"{'lon': -75.56392, 'lat': 6.179937}",https://www.metrocuadrado.com/inmueble/venta-apartamento-medellin-san-lucas-1-habitaciones-2-banos-1-garajes/687-M6044687,Entre 10 y 20 años,6,2026-01-09
21417-M6129614,"{'id': '14', 'nombre': 'Apartaestudio'}",380000000,40,40,1,1,0,"{'id': '3', 'nombre': 'Medellín'}","{'id': '37', 'nombre': 'Suroccidente'}",EL NOGAL LOS ALMENDROS,Laureles,110000,K'STAINMOBILIARIA  S.A.S,Usado,"{'lon': -75.59927, 'lat': 6.237268}",https://www.metrocuadrado.com/inmueble/venta-apartaestudio-medellin-el-nogal-los-almendros-1-habitaciones-1-banos/21417-M6129614,Entre 0 y 5 años,5,2026-01-09
