propertyId,propertyType,salePrice,area,areac,rooms,bathrooms,garages,city,zone,neighborhood,commonNeighborhood,adminPrice,companyName,propertyState,coordinates,link,builtTime,stratum,Extraction Date
3695-M4428164,"{'id': '2', 'nombre': 'Casa'}",670000000,142,142,3,3,2,"{'id': '1', 'nombre': 'Bogotá D.C.'}","{'id': '1', 'nombre': 'Norte'}",LOS CEDROS ORIENTAL,ALTOS CEDRO GOLF,400000.0,GRUPO AMAYA A SAS,Usado,"{'lon': -74.02937, 'lat': 4.724014}",https://www.metrocuadrado.com/inmueble/venta-casa-bogota-los-cedros-oriental-3-habitaciones-3-banos-2-garajes/3695-M4428164,Más de 20 años,4,2025-08-16
5483-M5960898,"{'id': '2', 'nombre': 'Casa'}",1200000000,200,223,3,3,2,"{'id': '1', 'nombre': 'Bogotá D.C.'}","{'id': '4', 'nombre': 'Occidental'}",POPULAR MODELO,MODELO NORTE,0.0,NEGOCIOS INMOBILIARIOS,Usado,"{'lon': -74.080376, 'lat': 4.667586}",https://www.metrocuadrado.com/inmueble/venta-casa-bogota-popular-modelo-3-habitaciones-3-banos-2-garajes/5483-M5960898,Más de 20 años,4,2025-08-16
3695-M4290058,"{'id': '2', 'nombre': 'Casa'}",1650000000,290,290,3,4,2,"{'id': '1', 'nombre': 'Bogotá D.C.'}",,NA,Macadamia del Rio,0.0,GRUPO AMAYA A SAS,Usado,"{'lon': -73.95233, 'lat': 4.725873}",https://www.metrocuadrado.com/inmueble/venta-casa-bogota-na-3-habitaciones-4-banos-2-garajes/3695-M4290058,Entre 10 y 20 años,2,2025-08-16
MC5985497,"{'id': '2', 'nombre': 'Casa'}",1980000000,1100,450,4,5,4,"{'id': '1', 'nombre': 'Bogotá D.C.'}","{'id': '3', 'nombre': 'Noroccidente'}",CJR CALINAR,arrayanes suba la lomita   Guaymaral,1400000.0,,Usado,"{'lon': -74.06263, 'lat': 4.7719846}",https://www.metrocuadrado.com/inmueble/venta-casa-bogota-cjr-calinar-4-habitaciones-5-banos-4-garajes/MC5985497,Remodelado,6,2025-08-16
17268-M5766311,"{'id': '2', 'nombre': 'Casa'}",520000000,90,90,4,3,1,"{'id': '1', 'nombre': 'Bogotá D.C.'}","{'id': '3', 'nombre': 'Noroccidente'}",CJR IBERIA III,IBERIA,493000.0,Adriana Naranjo,Usado,"{'lon': -74.06665, 'lat': 4.721009}",https://www.metrocuadrado.com/inmueble/venta-casa-bogota-cjr-iberia-iii-4-habitaciones-3-banos-1-garajes/17268-M5766311,Más de 20 años,4,2025-08-16
MC5460883,"{'id': '2', 'nombre': 'Casa'}",1780000000,370,370,3,5,0,"{'id': '1', 'nombre': 'Bogotá D.C.'}","{'id': '6', 'nombre': 'Sur'}",RESTREPO OCCIDENTAL,EL RESTREPO   Antonio Nariño,,,Usado,"{'lon': -74.10529, 'lat': 4.588833}",https://www.metrocuadrado.com/inmueble/venta-casa-bogota-restrepo-occidental-3-habitaciones-5-banos/MC5460883,Más de 20 años,3,2025-08-16
MC5976402,"{'id': '2', 'nombre': 'Casa'}",750000000,288,288,5,4,0,"{'id': '1', 'nombre': 'Bogotá D.C.'}","{'id': '4', 'nombre': 'Occidental'}",CONCORDIA,SAN CARLOS   Kennedy,0.0,,Usado,"{'lon': -74.16664, 'lat': 4.6300154}",https://www.metrocuadrado.com/inmueble/venta-casa-bogota-concordia-5-habitaciones-4-banos/MC5976402,Entre 10 y 20 años,2,2025-08-16
