propertyId,propertyType,salePrice,area,areac,rooms,bathrooms,garages,city,zone,neighborhood,commonNeighborhood,adminPrice,companyName,propertyState,coordinates,link,builtTime,stratum,Extraction Date
11204-M5834210,"{'id': '2', 'nombre': 'Casa'}",2290000000,800.0,420.0,4,5,4,"{'id': '1', 'nombre': 'Bogotá D.C.'}","{'id': '3', 'nombre': 'Noroccidente'}",SAN JOSE DE BAVARIA,SAN JOSE DE BAVARIA,1000000.0,CLAUDIA MEDINA,Usado,"{'lon': -74.06379, 'lat': 4.76755}",https://www.metrocuadrado.com/inmueble/venta-casa-bogota-san-jose-de-bavaria-4-habitaciones-5-banos-4-garajes/11204-M5834210,Entre 10 y 20 años,5,2025-07-26
19258-M5955211,"{'id': '2', 'nombre': 'Casa'}",240000000,117.0,117.0,5,3,0,"{'id': '1', 'nombre': 'Bogotá D.C.'}",,ALCAPARROS DE SUBA / VILLA MARIA,Alcaparros De Suba / Villa Maria,,I GAMA SAS,Usado,"{'lon': -74.10063, 'lat': 4.73906}",https://www.metrocuadrado.com/inmueble/venta-casa-bogota-alcaparros-de-suba-villa-maria-5-habitaciones-3-banos/19258-M5955211,Más de 20 años,2,2025-07-26
20363-M5959840,"{'id': '2', 'nombre': 'Casa'}",286000000,73.0,73.0,3,2,1,"{'id': '1', 'nombre': 'Bogotá D.C.'}","{'id': '3', 'nombre': 'Noroccidente'}",CR PINAR DE LA FONTANA,EL PINAR SUBA,286000000.0,Diego Muñoz,Usado,"{'lon': -74.08845, 'lat': 4.7498665}",https://www.metrocuadrado.com/inmueble/venta-casa-bogota-cr-pinar-de-la-fontana-3-habitaciones-2-banos-1-garajes/20363-M5959840,Entre 10 y 20 años,3,2025-07-26
19874-M5959833,"{'id': '2', 'nombre': 'Casa'}",264000000,81.0,81.0,4,2,1,"{'id': '1', 'nombre': 'Bogotá D.C.'}","{'id': '6', 'nombre': 'Sur'}",I SECTOR,CANDELARIA LA NUEVA,0.0,Martha Moya Inmobiliaria,Usado,"{'lon': -74.15227, 'lat': 4.5707827}",https://www.metrocuadrado.com/inmueble/venta-casa-bogota-i-sector-4-habitaciones-2-banos-1-garajes/19874-M5959833,Más de 20 años,2,2025-07-26
MC3223612,"{'id': '2', 'nombre': 'Casa'}",292000000,69.6,69.6,3,2,1,"{'id': '1', 'nombre': 'Bogotá D.C.'}","{'id': '1', 'nombre': 'Norte'}",EL REDIL,EL REDIL,297000.0,,Usado,"{'lon': -74.02704, 'lat': 4.752778}",https://www.metrocuadrado.com/inmueble/venta-casa-bogota-el-redil-3-habitaciones-2-banos-1-garajes/MC3223612,Entre 10 y 20 años,4,2025-07-26
MC5335806,"{'id': '2', 'nombre': 'Casa'}",860000000,196.0,196.0,3,3,3,"{'id': '1', 'nombre': 'Bogotá D.C.'}","{'id': '4', 'nombre': 'Occidental'}",LA ESPERANZA,LA ESPERANZA MODELIA   Salitre Modelia,0.0,,Usado,"{'lon': -74.12176, 'lat': 4.663656}",https://www.metrocuadrado.com/inmueble/venta-casa-bogota-la-esperanza-3-habitaciones-3-banos-3-garajes/MC5335806,Más de 20 años,4,2025-07-26
15955-M5724563,"{'id': '2', 'nombre': 'Casa'}",1650000000,563.0,563.0,5,4,4,"{'id': '1', 'nombre': 'Bogotá D.C.'}","{'id': '4', 'nombre': 'Occidental'}",EL SALITRE,SALITRE GRECO,100000.0,INNOVAR Y ASESORIAS,Usado,"{'lon': -74.10076, 'lat': 4.6542616}",https://www.metrocuadrado.com/inmueble/venta-casa-bogota-el-salitre-5-habitaciones-4-banos-4-garajes/15955-M5724563,Más de 20 años,4,2025-07-26
