propertyId,propertyType,salePrice,area,areac,rooms,bathrooms,garages,city,zone,neighborhood,commonNeighborhood,adminPrice,companyName,propertyState,coordinates,link,builtTime,stratum,Extraction Date
10662-M5831962,"{'id': '2', 'nombre': 'Casa'}",3600000000,1200.0,1200.0,5,5,4,"{'id': '1', 'nombre': 'Bogotá D.C.'}","{'id': '2', 'nombre': 'Chapinero'}",ARMENIA,TEUSAQUILLO,0.0,INMOBILIARIA INDUSTRIAL DE COLOMBIA,Usado,"{'lon': -74.07375, 'lat': 4.6198683}",https://www.metrocuadrado.com/inmueble/venta-casa-bogota-armenia-5-habitaciones-5-banos-4-garajes/10662-M5831962,Más de 20 años,1,2026-05-27
14271-M5599997,"{'id': '2', 'nombre': 'Casa'}",788000000,148.0,148.0,3,3,2,"{'id': '1', 'nombre': 'Bogotá D.C.'}","{'id': '1', 'nombre': 'Norte'}",ESTRELLA DEL NORTE,VILLA MAGDALA,10000.0,El Olimpo Inmobiliaria,Usado,"{'lon': -74.046005, 'lat': 4.737315}",https://www.metrocuadrado.com/inmueble/venta-casa-bogota-estrella-del-norte-3-habitaciones-3-banos-2-garajes/14271-M5599997,Más de 20 años,4,2026-05-27
16106-M6684429,"{'id': '2', 'nombre': 'Casa'}",780000000,170.0,170.0,4,3,2,"{'id': '1', 'nombre': 'Bogotá D.C.'}","{'id': '1', 'nombre': 'Norte'}",MARANTA III SECTOR,MARANTA III,520000.0,Fanny Eljach Real Estate,Usado,"{'lon': -74.041214, 'lat': 4.764985}",https://www.metrocuadrado.com/inmueble/venta-casa-bogota-maranta-iii-sector-4-habitaciones-3-banos-2-garajes/16106-M6684429,Más de 20 años,5,2026-05-27
MC6536537,"{'id': '2', 'nombre': 'Casa'}",3500000000,239.0,725.0,4,5,1,"{'id': '1', 'nombre': 'Bogotá D.C.'}","{'id': '4', 'nombre': 'Occidental'}",SAN MIGUEL,SAN MIGUEL CAMINOS DEL VIENTO   Nicolás de Federmán,0.0,,Usado,"{'lon': -74.07812, 'lat': 4.662923}",https://www.metrocuadrado.com/inmueble/venta-casa-bogota-san-miguel-4-habitaciones-5-banos-1-garajes/MC6536537,Entre 5 y 10 años,4,2026-05-27
22247-M6492478,"{'id': '2', 'nombre': 'Casa'}",649000000,263.9,263.9,5,4,1,"{'id': '1', 'nombre': 'Bogotá D.C.'}","{'id': '6', 'nombre': 'Sur'}",CLARET,EL INGLES CLARET,0.0,MCA Inversiones y Propiedades - Mónica Barreto,Usado,"{'lon': -74.12861, 'lat': 4.5848227}",https://www.metrocuadrado.com/inmueble/venta-casa-bogota-claret-5-habitaciones-4-banos-1-garajes/22247-M6492478,Más de 20 años,3,2026-05-27
MC6529290,"{'id': '2', 'nombre': 'Casa'}",1400000000,192.5,192.5,3,4,2,"{'id': '1', 'nombre': 'Bogotá D.C.'}","{'id': '3', 'nombre': 'Noroccidente'}",SUBA NARANJOS,BALCONES DE LINDARAJA   Zona Urbana,,,Usado,"{'lon': -74.08211, 'lat': 4.7142663}",https://www.metrocuadrado.com/inmueble/venta-casa-bogota-suba-naranjos-3-habitaciones-4-banos-2-garajes/MC6529290,Más de 20 años,6,2026-05-27
21102-M6677252,"{'id': '2', 'nombre': 'Casa'}",850000000,232.0,232.0,5,3,2,"{'id': '1', 'nombre': 'Bogotá D.C.'}","{'id': '4', 'nombre': 'Occidental'}",VILLA LUZ,VILLA LUZ,0.0,Élite inversiones.,Usado,"{'lon': -74.108025, 'lat': 4.685358}",https://www.metrocuadrado.com/inmueble/venta-casa-bogota-villa-luz-5-habitaciones-3-banos-2-garajes/21102-M6677252,Más de 20 años,3,2026-05-27
MC5957801,"{'id': '2', 'nombre': 'Casa'}",770000000,89.84,160.0,3,2,1,"{'id': '1', 'nombre': 'Bogotá D.C.'}","{'id': '3', 'nombre': 'Noroccidente'}",JULIO FLOREZ,ANDES LA ALBORADA   Chicó,0.0,,Usado,"{'lon': -74.07691, 'lat': 4.6893563}",https://www.metrocuadrado.com/inmueble/venta-casa-bogota-julio-florez-3-habitaciones-2-banos-1-garajes/MC5957801,Más de 20 años,4,2026-05-27
MC6434404,"{'id': '2', 'nombre': 'Casa'}",990000000,260.0,270.0,4,5,2,"{'id': '1', 'nombre': 'Bogotá D.C.'}","{'id': '4', 'nombre': 'Occidental'}",AMERICAS OCCIDENTAL ET  I,AMERICAS OCCIDENTAL   Kennedy,,,Usado,"{'lon': -74.14026, 'lat': 4.6272607}",https://www.metrocuadrado.com/inmueble/venta-casa-bogota-americas-occidental-et.-i-4-habitaciones-5-banos-2-garajes/MC6434404,Remodelado,3,2026-05-27
MC6337099,"{'id': '2', 'nombre': 'Casa'}",2295000000,600.0,680.0,5,5,2,"{'id': '1', 'nombre': 'Bogotá D.C.'}","{'id': '4', 'nombre': 'Occidental'}",NORMANDIA,NORMANDIA OCCIDENTAL   Engativá,,,Usado,"{'lon': -74.10855, 'lat': 4.6686254}",https://www.metrocuadrado.com/inmueble/venta-casa-bogota-normandia-5-habitaciones-5-banos-2-garajes/MC6337099,Remodelado,3,2026-05-27
MC6476828,"{'id': '2', 'nombre': 'Casa'}",1399000000,225.0,190.0,4,5,4,"{'id': '1', 'nombre': 'Bogotá D.C.'}","{'id': '7', 'nombre': 'Guaymaral'}",CASA BLANCA,TORREMOLINOS   Guaymaral,,,Usado,"{'lon': -74.05852, 'lat': 4.7895093}",https://www.metrocuadrado.com/inmueble/venta-casa-bogota-casa-blanca-4-habitaciones-5-banos-4-garajes/MC6476828,Entre 5 y 10 años,6,2026-05-27
21302-M6466062,"{'id': '2', 'nombre': 'Casa'}",815000000,151.0,151.0,3,3,2,"{'id': '1', 'nombre': 'Bogotá D.C.'}","{'id': '3', 'nombre': 'Noroccidente'}",UB HACIENDA CORDOBA NIZA,NIZA,790000.0,Listíng Real Estate,Usado,"{'lon': -74.06342, 'lat': 4.7116513}",https://www.metrocuadrado.com/inmueble/venta-casa-bogota-ub-hacienda-cordoba-niza-3-habitaciones-3-banos-2-garajes/21302-M6466062,Entre 10 y 20 años,4,2026-05-27
MC6692906,"{'id': '2', 'nombre': 'Casa'}",720000000,220.0,220.0,5,2,0,"{'id': '1', 'nombre': 'Bogotá D.C.'}","{'id': '4', 'nombre': 'Occidental'}",PUENTE ARANDA,PUENTE ARANDA INDUSTRIAL   Puente Aranda,0.0,,Usado,"{'lon': -74.10634, 'lat': 4.6334586}",https://www.metrocuadrado.com/inmueble/venta-casa-bogota-puente-aranda-5-habitaciones-2-banos/MC6692906,Más de 20 años,3,2026-05-27
MC6416988,"{'id': '2', 'nombre': 'Casa'}",999000000,215.0,215.0,3,3,2,"{'id': '1', 'nombre': 'Bogotá D.C.'}","{'id': '1', 'nombre': 'Norte'}",CEDRO NARVAEZ,CEDRITOS   Zona Urbana,860000.0,,Usado,"{'lon': -74.035545, 'lat': 4.7212834}",https://www.metrocuadrado.com/inmueble/venta-casa-bogota-cedro-narvaez-3-habitaciones-3-banos-2-garajes/MC6416988,Remodelado,4,2026-05-27
21601-M6288105,"{'id': '2', 'nombre': 'Casa'}",290000000,75.0,75.0,3,3,0,"{'id': '1', 'nombre': 'Bogotá D.C.'}",,TOBERIN,Toberin,200000.0,ATIK SOLUCIONES  INMOBILIARIAS SAS ,Usado,"{'lon': -74.03913, 'lat': 4.744952}",https://www.metrocuadrado.com/inmueble/venta-casa-bogota-toberin-3-habitaciones-3-banos/21601-M6288105,Más de 20 años,3,2026-05-27
20188-M5772125,"{'id': '2', 'nombre': 'Casa'}",609500000,242.0,242.0,5,5,2,"{'id': '1', 'nombre': 'Bogotá D.C.'}","{'id': '3', 'nombre': 'Noroccidente'}",CIUDAD QUIRIGUA,QUIRIGUA,0.0,Mayeinmobiliaria,Usado,"{'lon': -74.098915, 'lat': 4.712614}",https://www.metrocuadrado.com/inmueble/venta-casa-bogota-ciudad-quirigua-5-habitaciones-5-banos-2-garajes/20188-M5772125,Más de 20 años,3,2026-05-27
22985-M6709675,"{'id': '2', 'nombre': 'Casa'}",400000000,168.0,168.0,4,2,3,"{'id': '1', 'nombre': 'Bogotá D.C.'}","{'id': '102', 'nombre': 'Otros'}",GIRARDOT,GIRARDOT PEÑON,353000.0,MARIA DOLORES QUIÑONEZ PIMIENTO,Usado,"{'lon': -74.07283, 'lat': 4.5846906}",https://www.metrocuadrado.com/inmueble/venta-casa-bogota-girardot-4-habitaciones-2-banos-3-garajes/22985-M6709675,Entre 10 y 20 años,1,2026-05-27
20140-M6531815,"{'id': '2', 'nombre': 'Casa'}",950000000,120.0,120.0,3,3,1,"{'id': '1', 'nombre': 'Bogotá D.C.'}","{'id': '4', 'nombre': 'Occidental'}",PRADOS DEL SALITRE,QUINTA PAREDES,600000.0,Lab G Real State,Usado,"{'lon': -74.0991, 'lat': 4.6353984}",https://www.metrocuadrado.com/inmueble/venta-casa-bogota-prados-del-salitre-3-habitaciones-3-banos-1-garajes/20140-M6531815,Más de 20 años,4,2026-05-27
