propertyId,propertyType,salePrice,area,areac,rooms,bathrooms,garages,city,zone,neighborhood,commonNeighborhood,adminPrice,companyName,propertyState,coordinates,link,builtTime,stratum,Extraction Date
17994-M6479413,"{'id': '2', 'nombre': 'Casa'}",690000000,108,108,3,3,2,"{'id': '9', 'nombre': 'Manizales'}","{'id': '102', 'nombre': 'Otros'}",SAN MARCEL,SAN MARCEL,550000,IBONNE TORO,Usado,"{'lon': -75.46914, 'lat': 5.035273}",https://www.metrocuadrado.com/inmueble/venta-casa-manizales-san-marcel-3-habitaciones-3-banos-2-garajes/17994-M6479413,Entre 0 y 5 años,6,2026-05-09
21063-M6474559,"{'id': '2', 'nombre': 'Casa'}",640000000,94,94,3,2,1,"{'id': '4720', 'nombre': 'Villamaria'}",,LA FLORIDA,La Florida,395000,MR Negocios Inmobiliarios,Usado,"{'lon': -75.491135, 'lat': 5.039066}",https://www.metrocuadrado.com/inmueble/venta-casa-villamaria-la-florida-3-habitaciones-2-banos-1-garajes/21063-M6474559,Entre 0 y 5 años,4,2026-05-09
21639-M6313416,"{'id': '2', 'nombre': 'Casa'}",1200000000,165,150,4,3,0,"{'id': '9', 'nombre': 'Manizales'}",,LA FLORIDA,La Florida,405000,Providencia Inmobiliaria,Usado,"{'lon': -75.4818, 'lat': 5.03177}",https://www.metrocuadrado.com/inmueble/venta-casa-manizales-la-florida-4-habitaciones-3-banos/21639-M6313416,Entre 5 y 10 años,3,2026-05-09
17548-M6557357,"{'id': '2', 'nombre': 'Casa'}",730000000,120,120,4,3,1,"{'id': '9', 'nombre': 'Manizales'}","{'id': '99', 'nombre': 'Norte'}",SAN MARCEL,SAN MARCEL,598000,CARLOS HUMBERTO  CARREÑO,Usado,"{'lon': -75.47193, 'lat': 5.035618}",https://www.metrocuadrado.com/inmueble/venta-casa-manizales-san-marcel-4-habitaciones-3-banos-1-garajes/17548-M6557357,Entre 10 y 20 años,6,2026-05-09
17548-M6557241,"{'id': '2', 'nombre': 'Casa'}",670000000,162,162,5,3,1,"{'id': '9', 'nombre': 'Manizales'}","{'id': '102', 'nombre': 'Otros'}",EL CAMPIN,EL CAMPIN,0,CARLOS HUMBERTO  CARREÑO,Usado,"{'lon': -75.50214, 'lat': 5.060531}",https://www.metrocuadrado.com/inmueble/venta-casa-manizales-el-campin-5-habitaciones-3-banos-1-garajes/17548-M6557241,Más de 20 años,4,2026-05-09
