propertyId,propertyType,salePrice,area,areac,rooms,bathrooms,garages,city,zone,neighborhood,commonNeighborhood,adminPrice,companyName,propertyState,coordinates,link,builtTime,stratum,Extraction Date
17548-M5981960,"{'id': '2', 'nombre': 'Casa'}",680000000,116,120.0,4,3,2,"{'id': '9', 'nombre': 'Manizales'}","{'id': '102', 'nombre': 'Otros'}",SAN MARCEL,SAN MARCEL,491000,CARLOS HUMBERTO  CARREÑO,Usado,"{'lon': -75.47232, 'lat': 5.0355215}",https://www.metrocuadrado.com/inmueble/venta-casa-manizales-san-marcel-4-habitaciones-3-banos-2-garajes/17548-M5981960,Entre 10 y 20 años,6,2026-04-13
17548-M5775562,"{'id': '2', 'nombre': 'Casa'}",530000000,180,180.2,5,4,4,"{'id': '4710', 'nombre': 'Neira'}","{'id': '102', 'nombre': 'Otros'}",NA,NEIRA,480000,CARLOS HUMBERTO  CARREÑO,Usado,"{'lon': -75.51907, 'lat': 5.170324}",https://www.metrocuadrado.com/inmueble/venta-casa-neira-na-5-habitaciones-4-banos-4-garajes/17548-M5775562,Entre 10 y 20 años,2,2026-04-13
17548-M6557357,"{'id': '2', 'nombre': 'Casa'}",730000000,120,120.0,4,3,1,"{'id': '9', 'nombre': 'Manizales'}","{'id': '99', 'nombre': 'Norte'}",SAN MARCEL,SAN MARCEL,598000,CARLOS HUMBERTO  CARREÑO,Usado,"{'lon': -75.47193, 'lat': 5.035618}",https://www.metrocuadrado.com/inmueble/venta-casa-manizales-san-marcel-4-habitaciones-3-banos-1-garajes/17548-M6557357,Entre 10 y 20 años,6,2026-04-13
17994-M6009630,"{'id': '2', 'nombre': 'Casa'}",780000000,50,142.0,4,4,2,"{'id': '9', 'nombre': 'Manizales'}","{'id': '100', 'nombre': 'Sur'}",BR SAN MARCEL,SAN MARCEL,780000,IBONNE TORO,Usado,"{'lon': -75.46934, 'lat': 5.0334473}",https://www.metrocuadrado.com/inmueble/venta-casa-manizales-br-san-marcel-4-habitaciones-4-banos-2-garajes/17994-M6009630,Entre 0 y 5 años,6,2026-04-13
17548-M6557241,"{'id': '2', 'nombre': 'Casa'}",670000000,162,162.0,5,3,1,"{'id': '9', 'nombre': 'Manizales'}","{'id': '102', 'nombre': 'Otros'}",EL CAMPIN,EL CAMPIN,0,CARLOS HUMBERTO  CARREÑO,Usado,"{'lon': -75.50214, 'lat': 5.060531}",https://www.metrocuadrado.com/inmueble/venta-casa-manizales-el-campin-5-habitaciones-3-banos-1-garajes/17548-M6557241,Más de 20 años,4,2026-04-13
17141-M6472815,"{'id': '2', 'nombre': 'Casa'}",2792000000,370,349.0,5,4,2,"{'id': '9', 'nombre': 'Manizales'}","{'id': '100', 'nombre': 'Sur'}",CN EL RINCON DEL TREBOL,EL TREBOL,854000,ATR INMOBILIARIA SAS,Usado,"{'lon': -75.47884, 'lat': 5.039283}",https://www.metrocuadrado.com/inmueble/venta-casa-manizales-cn-el-rincon-del-trebol-5-habitaciones-4-banos-2-garajes/17141-M6472815,Entre 10 y 20 años,6,2026-04-13
17548-M5989191,"{'id': '2', 'nombre': 'Casa'}",450000000,132,132.0,4,4,2,"{'id': '9', 'nombre': 'Manizales'}","{'id': '102', 'nombre': 'Otros'}",VILLA CAFE LA CAROLA,VILLA CAFE LA CAROLA,0,CARLOS HUMBERTO  CARREÑO,Usado,"{'lon': -75.485214, 'lat': 5.0682244}",https://www.metrocuadrado.com/inmueble/venta-casa-manizales-villa-cafe-la-carola-4-habitaciones-4-banos-2-garajes/17548-M5989191,Entre 10 y 20 años,3,2026-04-13
17548-M5660550,"{'id': '2', 'nombre': 'Casa'}",530000000,207,207.0,5,4,2,"{'id': '9', 'nombre': 'Manizales'}","{'id': '100', 'nombre': 'Sur'}",LA FRANCIA,LA FRANCIA,0,CARLOS HUMBERTO  CARREÑO,Usado,"{'lon': -75.53084, 'lat': 5.070765}",https://www.metrocuadrado.com/inmueble/venta-casa-manizales-la-francia-5-habitaciones-4-banos-2-garajes/17548-M5660550,Más de 20 años,6,2026-04-13
16632-M6477361,"{'id': '2', 'nombre': 'Casa'}",1550000000,270,250.0,4,4,2,"{'id': '9', 'nombre': 'Manizales'}","{'id': '100', 'nombre': 'Sur'}",CR  LOMA VERDE,Palermo,1100000,ORGANIZACION BRANDO u0026 COMPAÑÍA SAS,Usado,"{'lon': -75.48923, 'lat': 5.0486298}",https://www.metrocuadrado.com/inmueble/venta-casa-manizales-cr.-loma-verde-4-habitaciones-4-banos-2-garajes/16632-M6477361,Más de 20 años,6,2026-04-13
17548-M5783110,"{'id': '2', 'nombre': 'Casa'}",450000000,100,100.0,3,3,1,"{'id': '9', 'nombre': 'Manizales'}","{'id': '99', 'nombre': 'Norte'}",ALTOS DEL CAPRI,ALTOS DE CAPRI,250000,CARLOS HUMBERTO  CARREÑO,Usado,"{'lon': -75.500496, 'lat': 5.0786467}",https://www.metrocuadrado.com/inmueble/venta-casa-manizales-altos-del-capri-3-habitaciones-3-banos-1-garajes/17548-M5783110,Entre 5 y 10 años,3,2026-04-13
17548-M5760164,"{'id': '2', 'nombre': 'Casa'}",780000000,474,474.0,5,4,0,"{'id': '9', 'nombre': 'Manizales'}","{'id': '100', 'nombre': 'Sur'}",EL BOSQUE,EL BOSQUE,0,CARLOS HUMBERTO  CARREÑO,Usado,"{'lon': -75.52337, 'lat': 5.0642347}",https://www.metrocuadrado.com/inmueble/venta-casa-manizales-el-bosque-5-habitaciones-4-banos/17548-M5760164,Más de 20 años,3,2026-04-13
20461-M6059966,"{'id': '2', 'nombre': 'Casa'}",650000000,180,180.0,5,3,1,"{'id': '9', 'nombre': 'Manizales'}","{'id': '99', 'nombre': 'Norte'}",TERRAZAS DE CAMPO HERMOSO,TERRAZAS DE CAMPO HERMOSO,100000,Nuestra Casa Servicios Inmobiliarios,Usado,"{'lon': -75.52082, 'lat': 5.076483}",https://www.metrocuadrado.com/inmueble/venta-casa-manizales-terrazas-de-campo-hermoso-5-habitaciones-3-banos-1-garajes/20461-M6059966,Entre 10 y 20 años,4,2026-04-13
17994-M5405183,"{'id': '2', 'nombre': 'Casa'}",1550000000,2806,320.0,4,3,3,"{'id': '9', 'nombre': 'Manizales'}","{'id': '102', 'nombre': 'Otros'}",NA,SAN BERNARDO DEL VIENTO,984000,IBONNE TORO,Usado,"{'lon': -75.58891, 'lat': 5.0462875}",https://www.metrocuadrado.com/inmueble/venta-casa-manizales-na-4-habitaciones-3-banos-3-garajes/17994-M5405183,Remodelado,6,2026-04-13
17994-M5449202,"{'id': '2', 'nombre': 'Casa'}",800000000,24,110.7,3,3,2,"{'id': '4720', 'nombre': 'Villamaria'}","{'id': '102', 'nombre': 'Otros'}",LUSITANA,La Florida,350000,IBONNE TORO,Usado,"{'lon': -75.481544, 'lat': 5.0309057}",https://www.metrocuadrado.com/inmueble/venta-casa-villamaria-lusitana-3-habitaciones-3-banos-2-garajes/17994-M5449202,Remodelado,4,2026-04-13
16610-M5430433,"{'id': '2', 'nombre': 'Casa'}",870000000,2160,2160.0,5,5,4,"{'id': '4721', 'nombre': 'Viterbo'}",,NA,Viterbo,800000,TU CASA YA S.A.S.,Usado,"{'lon': 0, 'lat': 0}",https://www.metrocuadrado.com/inmueble/venta-casa-viterbo-na-5-habitaciones-5-banos-4-garajes/16610-M5430433,Entre 10 y 20 años,3,2026-04-13
