propertyId,propertyType,salePrice,area,areac,rooms,bathrooms,garages,city,zone,neighborhood,commonNeighborhood,adminPrice,companyName,propertyState,coordinates,link,builtTime,stratum,Extraction Date
18237-M5513984,"{'id': '2', 'nombre': 'Casa'}",450000000,140,140,3,2,1,"{'id': '3', 'nombre': 'Medellín'}","{'id': '35', 'nombre': 'Noroccidente'}",LOS ALCAZARES,Floresta Alcazares,,NEGOCIOS CON PROPOSITO,Usado,"{'lon': -75.602974, 'lat': 6.2608895}",https://www.metrocuadrado.com/inmueble/venta-casa-medellin-los-alcazares-3-habitaciones-2-banos-1-garajes/18237-M5513984,Más de 20 años,3,2025-04-19
16215-M5696368,"{'id': '2', 'nombre': 'Casa'}",3400000000,595,595,3,5,4,"{'id': '3', 'nombre': 'Medellín'}",,NA,Las Palmas,813000.0,CASAS u0026 ESPACIOS,Usado,"{'lon': 0, 'lat': 0}",https://www.metrocuadrado.com/inmueble/venta-casa-medellin-na-3-habitaciones-5-banos-4-garajes/16215-M5696368,Entre 0 y 5 años,5,2025-04-19
17029-M5669001,"{'id': '2', 'nombre': 'Casa'}",850000000,140,140,3,4,2,"{'id': '3', 'nombre': 'Medellín'}","{'id': '38', 'nombre': 'Suroriente'}",CASTROPOL,EL POBLADO CASTROPOL,596000.0,INTERCAMBIO INMOBILIARIO,Usado,"{'lon': -75.56875, 'lat': 6.2183137}",https://www.metrocuadrado.com/inmueble/venta-casa-medellin-castropol-3-habitaciones-4-banos-2-garajes/17029-M5669001,Entre 10 y 20 años,6,2025-04-19
13179-M3053628,"{'id': '2', 'nombre': 'Casa'}",1950000000,350,350,5,5,3,"{'id': '3', 'nombre': 'Medellín'}","{'id': '35', 'nombre': 'Noroccidente'}",SIMON BOLIVAR,SIMON BOLIVAR,0.0,ANGELES INMOBILIARIA ,Usado,"{'lon': -75.60195, 'lat': 6.248438}",https://www.metrocuadrado.com/inmueble/venta-casa-medellin-simon-bolivar-5-habitaciones-5-banos-3-garajes/13179-M3053628,Más de 20 años,5,2025-04-19
649-M5607521,"{'id': '2', 'nombre': 'Casa'}",1490000000,195,195,3,2,2,"{'id': '3', 'nombre': 'Medellín'}",,LA HONDONADA,Santa Elena,,PROYECTAIN INMOBILIARIA ,Usado,"{'lon': -75.60404, 'lat': 6.204724}",https://www.metrocuadrado.com/inmueble/venta-casa-medellin-la-hondonada-3-habitaciones-2-banos-2-garajes/649-M5607521,Entre 10 y 20 años,4,2025-04-19
14273-M5493747,"{'id': '2', 'nombre': 'Casa'}",2190000000,354,354,3,3,2,"{'id': '3', 'nombre': 'Medellín'}","{'id': '37', 'nombre': 'Suroccidente'}",EL NOGAL LOS ALMENDROS,Belen Nogal,,INMOBILIARIA ALBORADA,Usado,"{'lon': -75.59742, 'lat': 6.2384768}",https://www.metrocuadrado.com/inmueble/venta-casa-medellin-el-nogal-los-almendros-3-habitaciones-3-banos-2-garajes/14273-M5493747,Más de 20 años,5,2025-04-19
