propertyId,propertyType,salePrice,area,areac,rooms,bathrooms,garages,city,zone,neighborhood,commonNeighborhood,adminPrice,companyName,propertyState,coordinates,link,builtTime,stratum,Extraction Date
917-M6021482,"{'id': '2', 'nombre': 'Casa'}",12500000000,800.0,800.0,4,5,4,"{'id': '1', 'nombre': 'Bogotá D.C.'}","{'id': '1', 'nombre': 'Norte'}",SANTA ANA ORIENTAL,SANTA ANA ORIENTAL,1000000,NTM REAL ESTATE SAS,Usado,"{'lon': -74.03214, 'lat': 4.688401}",https://www.metrocuadrado.com/inmueble/venta-casa-bogota-santa-ana-oriental-4-habitaciones-5-banos-4-garajes/917-M6021482,Entre 0 y 5 años,6,2025-09-16
17565-M5794682,"{'id': '2', 'nombre': 'Casa'}",675000000,169.0,169.0,4,3,2,"{'id': '1', 'nombre': 'Bogotá D.C.'}","{'id': '1', 'nombre': 'Norte'}",LOS CEDROS ORIENTAL,Cedritos,750000,BOGOTA REAL ESTATE SAS,Usado,"{'lon': -74.03088, 'lat': 4.7239695}",https://www.metrocuadrado.com/inmueble/venta-casa-bogota-los-cedros-oriental-4-habitaciones-3-banos-2-garajes/17565-M5794682,Más de 20 años,4,2025-09-16
917-M6019956,"{'id': '2', 'nombre': 'Casa'}",5800000000,850.0,500.0,5,5,4,"{'id': '1', 'nombre': 'Bogotá D.C.'}","{'id': '1', 'nombre': 'Norte'}",SANTA ANA ORIENTAL,santa ana oriental usaquen,600000,NTM REAL ESTATE SAS,Usado,"{'lon': -74.03214, 'lat': 4.688401}",https://www.metrocuadrado.com/inmueble/venta-casa-bogota-santa-ana-oriental-5-habitaciones-5-banos-4-garajes/917-M6019956,Remodelado,6,2025-09-16
MC6047603,"{'id': '2', 'nombre': 'Casa'}",584000000,120.0,185.0,5,3,2,"{'id': '1', 'nombre': 'Bogotá D.C.'}","{'id': '4', 'nombre': 'Occidental'}",TABORA,TABORA   Engativá,0,,Usado,"{'lon': -74.10172, 'lat': 4.693252}",https://www.metrocuadrado.com/inmueble/venta-casa-bogota-tabora-5-habitaciones-3-banos-2-garajes/MC6047603,Más de 20 años,3,2025-09-16
MC6051311,"{'id': '2', 'nombre': 'Casa'}",370000000,190.5,190.5,5,4,1,"{'id': '1', 'nombre': 'Bogotá D.C.'}","{'id': '6', 'nombre': 'Sur'}",NUEVO MUZU,NUEVO MUZU   Rafael Uribe Uribe Tunjuelito,40000,,Usado,"{'lon': -74.148994, 'lat': 4.5846324}",https://www.metrocuadrado.com/inmueble/venta-casa-bogota-nuevo-muzu-5-habitaciones-4-banos-1-garajes/MC6051311,Entre 10 y 20 años,3,2025-09-16
18938-M5638548,"{'id': '2', 'nombre': 'Casa'}",1200000000,200.0,212.0,3,4,3,"{'id': '1', 'nombre': 'Bogotá D.C.'}","{'id': '3', 'nombre': 'Noroccidente'}",SUBA NARANJOS,BOSQUE DE PROVENZA,1265000,Caro Suárez Real Estate,Usado,"{'lon': -74.08397, 'lat': 4.733207}",https://www.metrocuadrado.com/inmueble/venta-casa-bogota-suba-naranjos-3-habitaciones-4-banos-3-garajes/18938-M5638548,Entre 10 y 20 años,6,2025-09-16
20824-M6032562,"{'id': '2', 'nombre': 'Casa'}",595000000,186.0,186.0,5,3,1,"{'id': '1', 'nombre': 'Bogotá D.C.'}","{'id': '6', 'nombre': 'Sur'}",VILLA DEL RIO,VILLA DEL RIO,120000,DIANA CAROLINA GUZMAN VALENCIA,Usado,"{'lon': -74.160965, 'lat': 4.600771}",https://www.metrocuadrado.com/inmueble/venta-casa-bogota-villa-del-rio-5-habitaciones-3-banos-1-garajes/20824-M6032562,Más de 20 años,3,2025-09-16
MC6051385,"{'id': '2', 'nombre': 'Casa'}",600000000,300.0,280.0,5,3,1,"{'id': '1', 'nombre': 'Bogotá D.C.'}","{'id': '6', 'nombre': 'Sur'}",EL CARMEN,SANTA ANA   Rafael Uribe Uribe Tunjuelito,0,,Usado,"{'lon': -74.135796, 'lat': 4.584366}",https://www.metrocuadrado.com/inmueble/venta-casa-bogota-el-carmen-5-habitaciones-3-banos-1-garajes/MC6051385,Remodelado,2,2025-09-16
