propertyId,propertyType,salePrice,area,areac,rooms,bathrooms,garages,city,zone,neighborhood,commonNeighborhood,adminPrice,companyName,propertyState,coordinates,link,builtTime,stratum,Extraction Date
16705-M5823720,"{'id': '2', 'nombre': 'Casa'}",790000000,199,199,5,4,1,"{'id': '3', 'nombre': 'Medellín'}","{'id': '102', 'nombre': 'Otros'}",ROSALES,BELEN ROSALES,0.0,Grupo Gil Inmobiliaria,Usado,"{'lon': -75.59057, 'lat': 6.2354636}",https://www.metrocuadrado.com/inmueble/venta-casa-medellin-rosales-5-habitaciones-4-banos-1-garajes/16705-M5823720,Más de 20 años,5,2025-09-21
17348-M5989784,"{'id': '2', 'nombre': 'Casa'}",440000000,80,80,3,3,1,"{'id': '3', 'nombre': 'Medellín'}","{'id': '37', 'nombre': 'Suroccidente'}",LOMA DE LOS BERNAL,BELEN LOMA DE LOS BERNAL,320000.0,SUSANA LAVERDE RIOS,Usado,"{'lon': -75.607056, 'lat': 6.217892}",https://www.metrocuadrado.com/inmueble/venta-casa-medellin-loma-de-los-bernal-3-habitaciones-3-banos-1-garajes/17348-M5989784,Entre 5 y 10 años,4,2025-09-21
20452-M5854804,"{'id': '2', 'nombre': 'Casa'}",1040000000,155,155,3,3,1,"{'id': '3', 'nombre': 'Medellín'}",,ENVIGADO,Envigado,675000.0,PROPIEDADES Tu0026J,Usado,"{'lon': -75.54834, 'lat': 6.2501984}",https://www.metrocuadrado.com/inmueble/venta-casa-medellin-envigado-3-habitaciones-3-banos-1-garajes/20452-M5854804,Entre 0 y 5 años,5,2025-09-21
17593-M5200150,"{'id': '2', 'nombre': 'Casa'}",5200000000,450,450,3,4,4,"{'id': '3', 'nombre': 'Medellín'}",,LAS PALMAS,Las Palmas,1500000.0,IDEAL REAL ESTATE,Usado,"{'lon': -75.56479, 'lat': 6.2386627}",https://www.metrocuadrado.com/inmueble/venta-casa-medellin-las-palmas-3-habitaciones-4-banos-4-garajes/17593-M5200150,Entre 5 y 10 años,6,2025-09-21
4660-M5989778,"{'id': '2', 'nombre': 'Casa'}",1100000000,230,230,3,5,2,"{'id': '3', 'nombre': 'Medellín'}",,EL POBLADO,El Poblado,,SU PROPIEDAD,Usado,"{'lon': -75.5714, 'lat': 6.18489}",https://www.metrocuadrado.com/inmueble/venta-casa-medellin-el-poblado-3-habitaciones-5-banos-2-garajes/4660-M5989778,Más de 20 años,6,2025-09-21
687-M4593019,"{'id': '2', 'nombre': 'Casa'}",1570000000,240,240,3,4,2,"{'id': '3', 'nombre': 'Medellín'}","{'id': '38', 'nombre': 'Suroriente'}",EL TESORO,EL POBLADO,735000.0,PROINTEGRAL SA,Usado,"{'lon': -75.554886, 'lat': 6.203419}",https://www.metrocuadrado.com/inmueble/venta-casa-medellin-el-tesoro-3-habitaciones-4-banos-2-garajes/687-M4593019,Entre 5 y 10 años,6,2025-09-21
