propertyId,propertyType,salePrice,area,areac,rooms,bathrooms,garages,city,zone,neighborhood,commonNeighborhood,adminPrice,companyName,propertyState,coordinates,link,builtTime,stratum,Extraction Date
18237-M5612687,"{'id': '2', 'nombre': 'Casa'}",595000000,197,197,5,4,1,"{'id': '3', 'nombre': 'Medellín'}",,BOSTON,Boston,,NEGOCIOS CON PROPOSITO,Usado,"{'lon': -75.558266, 'lat': 6.24812}",https://www.metrocuadrado.com/inmueble/venta-casa-medellin-boston-5-habitaciones-4-banos-1-garajes/18237-M5612687,Más de 20 años,1,2026-03-30
12116-M4293587,"{'id': '2', 'nombre': 'Casa'}",960000000,284,284,4,3,1,"{'id': '3', 'nombre': 'Medellín'}","{'id': '37', 'nombre': 'Suroccidente'}",GRANADA,BELEN,0.0,GRUPO INMOBILIARIO CABAL SAS,Usado,"{'lon': -75.59529, 'lat': 6.2305303}",https://www.metrocuadrado.com/inmueble/venta-casa-medellin-granada-4-habitaciones-3-banos-1-garajes/12116-M4293587,Más de 20 años,3,2026-03-30
13297-M6433937,"{'id': '2', 'nombre': 'Casa'}",1300000000,293,293,5,4,2,"{'id': '3', 'nombre': 'Medellín'}","{'id': '35', 'nombre': 'Noroccidente'}",LA CASTELLANA,LAURELES LA CASTELLANA,0.0,BIENES Y AUTOS .COM,Usado,"{'lon': -75.604706, 'lat': 6.240033}",https://www.metrocuadrado.com/inmueble/venta-casa-medellin-la-castellana-5-habitaciones-4-banos-2-garajes/13297-M6433937,Más de 20 años,5,2026-03-30
20490-M6449301,"{'id': '2', 'nombre': 'Casa'}",700000000,220,240,4,3,3,"{'id': '3', 'nombre': 'Medellín'}",,SAN CRISTOBAL,San Cristobal,,3S REALTY  INTERNATIONAL-MEDELLIN  SAS,Usado,"{'lon': -75.63688, 'lat': 6.2794456}",https://www.metrocuadrado.com/inmueble/venta-casa-medellin-san-cristobal-4-habitaciones-3-banos-3-garajes/20490-M6449301,Entre 0 y 5 años,3,2026-03-30
277-M6179104,"{'id': '2', 'nombre': 'Casa'}",290000000,95,95,2,1,0,"{'id': '3', 'nombre': 'Medellín'}","{'id': '36', 'nombre': 'Nororiente'}",MIRAFLORES,Buenos Aires,,Inmobiliaria Alfa Finca Raiz,Usado,"{'lon': -75.54413, 'lat': 6.232585}",https://www.metrocuadrado.com/inmueble/venta-casa-medellin-miraflores-2-habitaciones-1-banos/277-M6179104,Más de 20 años,3,2026-03-30
12116-M5333743,"{'id': '2', 'nombre': 'Casa'}",930000000,198,198,5,4,2,"{'id': '3', 'nombre': 'Medellín'}","{'id': '37', 'nombre': 'Suroccidente'}",LA MOTA,BELEN,545000.0,GRUPO INMOBILIARIO CABAL SAS,Usado,"{'lon': -75.59899, 'lat': 6.2089295}",https://www.metrocuadrado.com/inmueble/venta-casa-medellin-la-mota-5-habitaciones-4-banos-2-garajes/12116-M5333743,Entre 10 y 20 años,4,2026-03-30
