propertyId,propertyType,salePrice,area,areac,rooms,bathrooms,garages,city,zone,neighborhood,commonNeighborhood,adminPrice,companyName,propertyState,coordinates,link,builtTime,stratum,Extraction Date
21639-M6316898,"{'id': '2', 'nombre': 'Casa'}",2800000000,2000,500,5,5,4,"{'id': '9', 'nombre': 'Manizales'}",,SANTAGUEDA,Santagueda,1500000.0,Providencia Inmobiliaria,Usado,"{'lon': -75.66301, 'lat': 5.06504}",https://www.metrocuadrado.com/inmueble/venta-casa-manizales-santagueda-5-habitaciones-5-banos-4-garajes/21639-M6316898,Entre 5 y 10 años,3,2026-07-02
19095-M5583761,"{'id': '2', 'nombre': 'Casa'}",650000000,992,200,3,3,4,"{'id': '4721', 'nombre': 'Viterbo'}",,VEREDA SAN JOSE DE CALDAS,Vereda San Jose De Caldas,280000.0,IS54 INMOBILIARIA ,Usado,"{'lon': -75.8735, 'lat': 5.0618563}",https://www.metrocuadrado.com/inmueble/venta-casa-viterbo-vereda-san-jose-de-caldas-3-habitaciones-3-banos-4-garajes/19095-M5583761,Más de 20 años,6,2026-07-02
17994-M6028155,"{'id': '2', 'nombre': 'Casa'}",770000000,119,119,3,3,1,"{'id': '4720', 'nombre': 'Villamaria'}","{'id': '102', 'nombre': 'Otros'}",LA FLORIDA,,394000.0,IBONNE TORO,Usado,"{'lon': -75.48427, 'lat': 5.030568}",https://www.metrocuadrado.com/inmueble/venta-casa-villamaria-la-florida-3-habitaciones-3-banos-1-garajes/17994-M6028155,Remodelado,4,2026-07-02
17994-M6143424,"{'id': '2', 'nombre': 'Casa'}",1500000000,680,350,5,3,2,"{'id': '9', 'nombre': 'Manizales'}","{'id': '100', 'nombre': 'Sur'}",LA FRANCIA,LA FRANCIA,0.0,IBONNE TORO,Usado,"{'lon': -75.53262, 'lat': 5.0682726}",https://www.metrocuadrado.com/inmueble/venta-casa-manizales-la-francia-5-habitaciones-3-banos-2-garajes/17994-M6143424,Entre 5 y 10 años,5,2026-07-02
16632-M6440830,"{'id': '2', 'nombre': 'Casa'}",1850000000,220,220,3,3,2,"{'id': '9', 'nombre': 'Manizales'}",,LA FLORIDA,La Florida,650000.0,ORGANIZACION BRANDO u0026 COMPAÑÍA SAS,Usado,"{'lon': -75.49138, 'lat': 5.038206}",https://www.metrocuadrado.com/inmueble/venta-casa-manizales-la-florida-3-habitaciones-3-banos-2-garajes/16632-M6440830,Entre 10 y 20 años,6,2026-07-02
17548-M6634519,"{'id': '2', 'nombre': 'Casa'}",590000000,200,200,4,3,2,"{'id': '4710', 'nombre': 'Neira'}","{'id': '102', 'nombre': 'Otros'}",CONDOMINIO PALERMO,CONDOMINIO PALERMO,450000.0,CARLOS HUMBERTO  CARREÑO,Usado,"{'lon': -75.52039, 'lat': 5.1665597}",https://www.metrocuadrado.com/inmueble/venta-casa-neira-condominio-palermo-4-habitaciones-3-banos-2-garajes/17548-M6634519,Entre 10 y 20 años,3,2026-07-02
17141-M6309561,"{'id': '2', 'nombre': 'Casa'}",1500000000,415,415,5,4,4,"{'id': '5646', 'nombre': 'Santagueda'}",,,,640000.0,ATR INMOBILIARIA SAS,Usado,"{'lon': 0, 'lat': 0}",https://www.metrocuadrado.com/inmueble/venta-casa-santagueda-5-habitaciones-4-banos-4-garajes/17141-M6309561,Entre 0 y 5 años,6,2026-07-02
16632-M5977023,"{'id': '2', 'nombre': 'Casa'}",1550000000,578,281,4,5,3,"{'id': '9', 'nombre': 'Manizales'}",,ALHAMBRA,Alhambra,835000.0,ORGANIZACION BRANDO u0026 COMPAÑÍA SAS,Usado,"{'lon': -75.45776, 'lat': 5.0389657}",https://www.metrocuadrado.com/inmueble/venta-casa-manizales-alhambra-4-habitaciones-5-banos-3-garajes/16632-M5977023,Más de 20 años,6,2026-07-02
16632-M5950714,"{'id': '2', 'nombre': 'Casa'}",1200000000,296,296,4,4,4,"{'id': '9', 'nombre': 'Manizales'}",,NA,El Arenillo,850000.0,ORGANIZACION BRANDO u0026 COMPAÑÍA SAS,Usado,"{'lon': 0, 'lat': 0}",https://www.metrocuadrado.com/inmueble/venta-casa-manizales-na-4-habitaciones-4-banos-4-garajes/16632-M5950714,Más de 20 años,5,2026-07-02
19982-M6735342,"{'id': '2', 'nombre': 'Casa'}",2900000000,600,280,4,3,2,"{'id': '4720', 'nombre': 'Villamaria'}",,LA FLORIDA,La Florida,1400000.0,Af Capital Inmobiliario,Usado,"{'lon': -75.48045, 'lat': 5.0248246}",https://www.metrocuadrado.com/inmueble/venta-casa-villamaria-la-florida-4-habitaciones-3-banos-2-garajes/19982-M6735342,Entre 5 y 10 años,4,2026-07-02
16632-M4968921,"{'id': '2', 'nombre': 'Casa'}",1450000000,1142,1142,4,3,0,"{'id': '9', 'nombre': 'Manizales'}",,SANTAGUEDA,Santagueda,,ORGANIZACION BRANDO u0026 COMPAÑÍA SAS,Usado,"{'lon': -75.67104, 'lat': 5.1234884}",https://www.metrocuadrado.com/inmueble/venta-casa-manizales-santagueda-4-habitaciones-3-banos/16632-M4968921,Más de 20 años,4,2026-07-02
16632-M5310870,"{'id': '2', 'nombre': 'Casa'}",800000000,180,180,4,2,1,"{'id': '9', 'nombre': 'Manizales'}",,ALTA SUIZA,Alta Suiza,,ORGANIZACION BRANDO u0026 COMPAÑÍA SAS,Usado,"{'lon': -75.07988, 'lat': 9.959679}",https://www.metrocuadrado.com/inmueble/venta-casa-manizales-alta-suiza-4-habitaciones-2-banos-1-garajes/16632-M5310870,Más de 20 años,4,2026-07-02
16632-M6813247,"{'id': '2', 'nombre': 'Casa'}",590000000,117,117,3,3,2,"{'id': '4720', 'nombre': 'Villamaria'}",,CO  ALTO DE MOLINOS,La Florida,635000.0,ORGANIZACION BRANDO u0026 COMPAÑÍA SAS,Usado,"{'lon': -75.4968, 'lat': 5.038234}",https://www.metrocuadrado.com/inmueble/venta-casa-villamaria-co.-alto-de-molinos-3-habitaciones-3-banos-2-garajes/16632-M6813247,Entre 10 y 20 años,6,2026-07-02
16632-M5360278,"{'id': '2', 'nombre': 'Casa'}",1900000000,910,670,5,5,4,"{'id': '4720', 'nombre': 'Villamaria'}",,LA FLORIDA,La Florida,,ORGANIZACION BRANDO u0026 COMPAÑÍA SAS,Usado,"{'lon': -75.51477, 'lat': 5.042569}",https://www.metrocuadrado.com/inmueble/venta-casa-villamaria-la-florida-5-habitaciones-5-banos-4-garajes/16632-M5360278,Entre 0 y 5 años,6,2026-07-02
16632-M4865699,"{'id': '2', 'nombre': 'Casa'}",1500000000,1162,1162,4,5,1,"{'id': '9', 'nombre': 'Manizales'}",,LA FRANCIA/ ATARDECERES,La Francia/ Atardeceres,,ORGANIZACION BRANDO u0026 COMPAÑÍA SAS,Usado,"{'lon': -75.53262, 'lat': 5.0682726}",https://www.metrocuadrado.com/inmueble/venta-casa-manizales-la-francia-atardeceres-4-habitaciones-5-banos-1-garajes/16632-M4865699,Más de 20 años,6,2026-07-02
16632-M6626876,"{'id': '2', 'nombre': 'Casa'}",1550000000,800,800,5,3,4,"{'id': '4720', 'nombre': 'Villamaria'}",,NA,Llanitos,,ORGANIZACION BRANDO u0026 COMPAÑÍA SAS,Usado,"{'lon': -75.53843, 'lat': 4.991487}",https://www.metrocuadrado.com/inmueble/venta-casa-villamaria-na-5-habitaciones-3-banos-4-garajes/16632-M6626876,Entre 0 y 5 años,1,2026-07-02
17141-M6472815,"{'id': '2', 'nombre': 'Casa'}",2792000000,370,349,5,4,2,"{'id': '9', 'nombre': 'Manizales'}","{'id': '100', 'nombre': 'Sur'}",CN EL RINCON DEL TREBOL,EL TREBOL,854000.0,ATR INMOBILIARIA SAS,Usado,"{'lon': -75.47884, 'lat': 5.039283}",https://www.metrocuadrado.com/inmueble/venta-casa-manizales-cn-el-rincon-del-trebol-5-habitaciones-4-banos-2-garajes/17141-M6472815,Entre 10 y 20 años,6,2026-07-02
16632-M6546827,"{'id': '2', 'nombre': 'Casa'}",520000000,312,312,5,4,0,"{'id': '4720', 'nombre': 'Villamaria'}",,VILLAMARIA,Villamaria,,ORGANIZACION BRANDO u0026 COMPAÑÍA SAS,Usado,"{'lon': -75.475075, 'lat': 5.0659456}",https://www.metrocuadrado.com/inmueble/venta-casa-villamaria-villamaria-5-habitaciones-4-banos/16632-M6546827,Más de 20 años,3,2026-07-02
21791-M6335655,"{'id': '2', 'nombre': 'Casa'}",2200000000,364,364,5,4,2,"{'id': '9', 'nombre': 'Manizales'}",,PALERMO,Palermo,,Ubixa Inmobiliaria,Usado,"{'lon': -75.48662, 'lat': 5.0543957}",https://www.metrocuadrado.com/inmueble/venta-casa-manizales-palermo-5-habitaciones-4-banos-2-garajes/21791-M6335655,Más de 20 años,6,2026-07-02
