propertyId,propertyType,salePrice,area,areac,rooms,bathrooms,garages,city,zone,neighborhood,commonNeighborhood,adminPrice,companyName,propertyState,coordinates,link,builtTime,stratum,Extraction Date
21529-M6492017,"{'id': '2', 'nombre': 'Casa'}",2493784901,457,457,2,4,2,"{'id': '3', 'nombre': 'Medellín'}","{'id': '38', 'nombre': 'Suroriente'}",SANTA MARIA DE LOS ANGELES,SANTA MARIA DE LOS ANGELES,0.0,VITRINA INMOBILIARIA FINCA RAIZ,Usado,"{'lon': -75.581375, 'lat': 6.191257}",https://www.metrocuadrado.com/inmueble/venta-casa-medellin-santa-maria-de-los-angeles-2-habitaciones-4-banos-2-garajes/21529-M6492017,Más de 20 años,6,2026-05-21
19797-M6245172,"{'id': '2', 'nombre': 'Casa'}",7500000000,3430,580,5,5,4,"{'id': '3', 'nombre': 'Medellín'}",,ALTO DE LAS PALMAS,Alto De Las Palmas,1200000.0,HOMES INMOBILIARIA,Usado,"{'lon': -75.52937, 'lat': 6.159073}",https://www.metrocuadrado.com/inmueble/venta-casa-medellin-alto-de-las-palmas-5-habitaciones-5-banos-4-garajes/19797-M6245172,Entre 5 y 10 años,6,2026-05-21
21417-M6129147,"{'id': '2', 'nombre': 'Casa'}",1100000000,116,116,5,3,2,"{'id': '3', 'nombre': 'Medellín'}","{'id': '35', 'nombre': 'Noroccidente'}",SANTA MONICA,Santa Monica,,Ku0026#39;STAINMOBILIARIA  S.A.S,Usado,"{'lon': -75.61476, 'lat': 6.249991}",https://www.metrocuadrado.com/inmueble/venta-casa-medellin-santa-monica-5-habitaciones-3-banos-2-garajes/21417-M6129147,Entre 0 y 5 años,4,2026-05-21
MC6532901,"{'id': '2', 'nombre': 'Casa'}",1280000000,212,212,5,3,1,"{'id': '3', 'nombre': 'Medellín'}","{'id': '35', 'nombre': 'Noroccidente'}",BOLIVARIANA,LAURELES   Noroccidente,0.0,,Usado,"{'lon': -75.59207, 'lat': 6.2473216}",https://www.metrocuadrado.com/inmueble/venta-casa-medellin-bolivariana-5-habitaciones-3-banos-1-garajes/MC6532901,Más de 20 años,5,2026-05-21
20765-M6429901,"{'id': '2', 'nombre': 'Casa'}",6000000000,2500,600,4,5,3,"{'id': '3', 'nombre': 'Medellín'}","{'id': '36', 'nombre': 'Nororiente'}",LAS PALMAS,Alto De Las Palmas,900000.0,PROVENTO INMOBILIARIA SAS,Usado,"{'lon': -75.56593, 'lat': 6.240578}",https://www.metrocuadrado.com/inmueble/venta-casa-medellin-las-palmas-4-habitaciones-5-banos-3-garajes/20765-M6429901,Más de 20 años,5,2026-05-21
11166-M6381281,"{'id': '2', 'nombre': 'Casa'}",950000000,171,171,5,3,2,"{'id': '3', 'nombre': 'Medellín'}",,LAURELES,Laureles,,MAXIBIENES SAS,Usado,"{'lon': -75.59897, 'lat': 6.24119}",https://www.metrocuadrado.com/inmueble/venta-casa-medellin-laureles-5-habitaciones-3-banos-2-garajes/11166-M6381281,Entre 10 y 20 años,4,2026-05-21
