propertyId,propertyType,salePrice,area,areac,rooms,bathrooms,garages,city,zone,neighborhood,commonNeighborhood,adminPrice,companyName,propertyState,coordinates,link,builtTime,stratum,Extraction Date
19982-M5723590,"{'id': '2', 'nombre': 'Casa'}",1090000000,238,238,5,4,3,"{'id': '9', 'nombre': 'Manizales'}",,PALERMO,Palermo,1042000,Af Capital Inmobiliario,Usado,"{'lon': -75.4856, 'lat': 5.050783}",https://www.metrocuadrado.com/inmueble/venta-casa-manizales-palermo-5-habitaciones-4-banos-3-garajes/19982-M5723590,Entre 10 y 20 años,6,2026-04-23
21063-M6474559,"{'id': '2', 'nombre': 'Casa'}",640000000,94,94,3,2,1,"{'id': '4720', 'nombre': 'Villamaria'}",,LA FLORIDA,La Florida,395000,MR Negocios Inmobiliarios,Usado,"{'lon': -75.491135, 'lat': 5.039066}",https://www.metrocuadrado.com/inmueble/venta-casa-villamaria-la-florida-3-habitaciones-2-banos-1-garajes/21063-M6474559,Entre 0 y 5 años,4,2026-04-23
19982-M5723515,"{'id': '2', 'nombre': 'Casa'}",750000000,123,123,4,3,2,"{'id': '9', 'nombre': 'Manizales'}",,LA FLORIDA,La Florida,400000,Af Capital Inmobiliario,Usado,"{'lon': -75.49167, 'lat': 5.036291}",https://www.metrocuadrado.com/inmueble/venta-casa-manizales-la-florida-4-habitaciones-3-banos-2-garajes/19982-M5723515,Entre 5 y 10 años,4,2026-04-23
17141-M6514057,"{'id': '2', 'nombre': 'Casa'}",620000000,90,90,3,3,2,"{'id': '9', 'nombre': 'Manizales'}","{'id': '102', 'nombre': 'Otros'}",LA FLORIDA,LA FLORIDA,420000,ATR INMOBILIARIA SAS,Usado,"{'lon': -75.484276, 'lat': 5.0306783}",https://www.metrocuadrado.com/inmueble/venta-casa-manizales-la-florida-3-habitaciones-3-banos-2-garajes/17141-M6514057,Entre 5 y 10 años,4,2026-04-23
17548-M6586130,"{'id': '2', 'nombre': 'Casa'}",690000000,130,130,4,3,1,"{'id': '9', 'nombre': 'Manizales'}","{'id': '102', 'nombre': 'Otros'}",LA RAMBLA,LA RAMBLA,544000,CARLOS HUMBERTO  CARREÑO,Usado,"{'lon': -75.48598, 'lat': 5.0589705}",https://www.metrocuadrado.com/inmueble/venta-casa-manizales-la-rambla-4-habitaciones-3-banos-1-garajes/17548-M6586130,Más de 20 años,5,2026-04-23
17548-M6510035,"{'id': '2', 'nombre': 'Casa'}",870000000,192,192,4,4,1,"{'id': '9', 'nombre': 'Manizales'}","{'id': '99', 'nombre': 'Norte'}",LA LEONORA,LA LEONORA,0,CARLOS HUMBERTO  CARREÑO,Usado,"{'lon': -75.493935, 'lat': 5.0657845}",https://www.metrocuadrado.com/inmueble/venta-casa-manizales-la-leonora-4-habitaciones-4-banos-1-garajes/17548-M6510035,Entre 10 y 20 años,4,2026-04-23
