propertyId,propertyType,salePrice,area,areac,rooms,bathrooms,garages,city,zone,neighborhood,commonNeighborhood,adminPrice,companyName,propertyState,coordinates,link,builtTime,stratum,Extraction Date
17994-M6479413,"{'id': '2', 'nombre': 'Casa'}",690000000,108,108,3,3,2,"{'id': '9', 'nombre': 'Manizales'}","{'id': '102', 'nombre': 'Otros'}",SAN MARCEL,SAN MARCEL,550000.0,IBONNE TORO,Usado,"{'lon': -75.46914, 'lat': 5.035273}",https://www.metrocuadrado.com/inmueble/venta-casa-manizales-san-marcel-3-habitaciones-3-banos-2-garajes/17994-M6479413,Entre 0 y 5 años,6,2026-05-31
21265-M6664176,"{'id': '2', 'nombre': 'Casa'}",550000000,180,180,5,4,2,"{'id': '9', 'nombre': 'Manizales'}",,CHIPRE,Chipre,,Star Inmobiliaria,Usado,"{'lon': -75.52461, 'lat': 5.06936}",https://www.metrocuadrado.com/inmueble/venta-casa-manizales-chipre-5-habitaciones-4-banos-2-garajes/21265-M6664176,Entre 10 y 20 años,4,2026-05-31
21639-M6313416,"{'id': '2', 'nombre': 'Casa'}",1200000000,165,150,4,3,0,"{'id': '9', 'nombre': 'Manizales'}",,LA FLORIDA,La Florida,405000.0,Providencia Inmobiliaria,Usado,"{'lon': -75.4818, 'lat': 5.03177}",https://www.metrocuadrado.com/inmueble/venta-casa-manizales-la-florida-4-habitaciones-3-banos/21639-M6313416,Entre 5 y 10 años,3,2026-05-31
17141-M6309561,"{'id': '2', 'nombre': 'Casa'}",1500000000,415,415,5,4,4,"{'id': '5646', 'nombre': 'Santagueda'}",,,,640000.0,ATR INMOBILIARIA SAS,Usado,"{'lon': 0, 'lat': 0}",https://www.metrocuadrado.com/inmueble/venta-casa-santagueda-5-habitaciones-4-banos-4-garajes/17141-M6309561,Entre 0 y 5 años,6,2026-05-31
17141-M6472815,"{'id': '2', 'nombre': 'Casa'}",2792000000,370,349,5,4,2,"{'id': '9', 'nombre': 'Manizales'}","{'id': '100', 'nombre': 'Sur'}",CN EL RINCON DEL TREBOL,EL TREBOL,854000.0,ATR INMOBILIARIA SAS,Usado,"{'lon': -75.47884, 'lat': 5.039283}",https://www.metrocuadrado.com/inmueble/venta-casa-manizales-cn-el-rincon-del-trebol-5-habitaciones-4-banos-2-garajes/17141-M6472815,Entre 10 y 20 años,6,2026-05-31
17141-M6514057,"{'id': '2', 'nombre': 'Casa'}",620000000,90,90,3,3,2,"{'id': '9', 'nombre': 'Manizales'}","{'id': '102', 'nombre': 'Otros'}",LA FLORIDA,LA FLORIDA,420000.0,ATR INMOBILIARIA SAS,Usado,"{'lon': -75.484276, 'lat': 5.0306783}",https://www.metrocuadrado.com/inmueble/venta-casa-manizales-la-florida-3-habitaciones-3-banos-2-garajes/17141-M6514057,Entre 5 y 10 años,4,2026-05-31
17994-M6143239,"{'id': '2', 'nombre': 'Casa'}",1200000000,167,135,3,3,1,"{'id': '4720', 'nombre': 'Villamaria'}","{'id': '102', 'nombre': 'Otros'}",LA FLORIDA,la florida,405000.0,IBONNE TORO,Usado,"{'lon': -75.48427, 'lat': 5.030568}",https://www.metrocuadrado.com/inmueble/venta-casa-villamaria-la-florida-3-habitaciones-3-banos-1-garajes/17994-M6143239,Entre 5 y 10 años,4,2026-05-31
17994-M6143424,"{'id': '2', 'nombre': 'Casa'}",1500000000,680,350,5,3,2,"{'id': '9', 'nombre': 'Manizales'}","{'id': '100', 'nombre': 'Sur'}",LA FRANCIA,LA FRANCIA,0.0,IBONNE TORO,Usado,"{'lon': -75.53262, 'lat': 5.0682726}",https://www.metrocuadrado.com/inmueble/venta-casa-manizales-la-francia-5-habitaciones-3-banos-2-garajes/17994-M6143424,Entre 5 y 10 años,5,2026-05-31
16632-M6440830,"{'id': '2', 'nombre': 'Casa'}",1850000000,220,220,3,3,2,"{'id': '9', 'nombre': 'Manizales'}",,LA FLORIDA,La Florida,650000.0,ORGANIZACION BRANDO u0026 COMPAÑÍA SAS,Usado,"{'lon': -75.49138, 'lat': 5.038206}",https://www.metrocuadrado.com/inmueble/venta-casa-manizales-la-florida-3-habitaciones-3-banos-2-garajes/16632-M6440830,Entre 10 y 20 años,6,2026-05-31
16632-M6353120,"{'id': '2', 'nombre': 'Casa'}",800000000,143,143,3,3,2,"{'id': '4720', 'nombre': 'Villamaria'}",,NA,La Florida,560000.0,ORGANIZACION BRANDO u0026 COMPAÑÍA SAS,Usado,"{'lon': 0, 'lat': 0}",https://www.metrocuadrado.com/inmueble/venta-casa-villamaria-na-3-habitaciones-3-banos-2-garajes/16632-M6353120,Entre 0 y 5 años,6,2026-05-31
17548-M6634519,"{'id': '2', 'nombre': 'Casa'}",590000000,200,200,4,3,2,"{'id': '4710', 'nombre': 'Neira'}","{'id': '102', 'nombre': 'Otros'}",CONDOMINIO PALERMO,CONDOMINIO PALERMO,450000.0,CARLOS HUMBERTO  CARREÑO,Usado,"{'lon': -75.52039, 'lat': 5.1665597}",https://www.metrocuadrado.com/inmueble/venta-casa-neira-condominio-palermo-4-habitaciones-3-banos-2-garajes/17548-M6634519,Entre 10 y 20 años,3,2026-05-31
16632-M5977023,"{'id': '2', 'nombre': 'Casa'}",1550000000,578,281,4,5,3,"{'id': '9', 'nombre': 'Manizales'}",,ALHAMBRA,Alhambra,835000.0,ORGANIZACION BRANDO u0026 COMPAÑÍA SAS,Usado,"{'lon': -75.45776, 'lat': 5.0389657}",https://www.metrocuadrado.com/inmueble/venta-casa-manizales-alhambra-4-habitaciones-5-banos-3-garajes/16632-M5977023,Más de 20 años,6,2026-05-31
21791-M6334018,"{'id': '2', 'nombre': 'Casa'}",800000000,200,200,4,3,4,"{'id': '4721', 'nombre': 'Viterbo'}",,VITERBO,Viterbo,604000.0,Ubixa Inmobiliaria,Usado,"{'lon': -75.855286, 'lat': 5.0551796}",https://www.metrocuadrado.com/inmueble/venta-casa-viterbo-viterbo-4-habitaciones-3-banos-4-garajes/21791-M6334018,Más de 20 años,5,2026-05-31
3229-M5563111,"{'id': '2', 'nombre': 'Casa'}",600000000,139,151,4,4,1,"{'id': '9', 'nombre': 'Manizales'}",,LLERAS,San Marcel,520000.0,COMMODITY ASESORIAS SAS,Usado,"{'lon': -75.50277, 'lat': 5.0629745}",https://www.metrocuadrado.com/inmueble/venta-casa-manizales-lleras-4-habitaciones-4-banos-1-garajes/3229-M5563111,Más de 20 años,6,2026-05-31
19982-M6356689,"{'id': '2', 'nombre': 'Casa'}",1100000000,164,164,3,4,2,"{'id': '9', 'nombre': 'Manizales'}",,LA FLORIDA,La Florida,600000.0,Af Capital Inmobiliario,Usado,"{'lon': -75.48351, 'lat': 5.036242}",https://www.metrocuadrado.com/inmueble/venta-casa-manizales-la-florida-3-habitaciones-4-banos-2-garajes/19982-M6356689,Entre 0 y 5 años,4,2026-05-31
3229-M5068252,"{'id': '2', 'nombre': 'Casa'}",650000000,139,151,3,3,1,"{'id': '9', 'nombre': 'Manizales'}",,CR EL PORTAL DEL BOSQUE,San Marcel,520000.0,COMMODITY ASESORIAS SAS,Usado,"{'lon': -75.47086, 'lat': 5.0360346}",https://www.metrocuadrado.com/inmueble/venta-casa-manizales-cr-el-portal-del-bosque-3-habitaciones-3-banos-1-garajes/3229-M5068252,Más de 20 años,6,2026-05-31
16632-M5360278,"{'id': '2', 'nombre': 'Casa'}",1900000000,910,670,5,5,4,"{'id': '4720', 'nombre': 'Villamaria'}",,LA FLORIDA,La Florida,,ORGANIZACION BRANDO u0026 COMPAÑÍA SAS,Usado,"{'lon': -75.51477, 'lat': 5.042569}",https://www.metrocuadrado.com/inmueble/venta-casa-villamaria-la-florida-5-habitaciones-5-banos-4-garajes/16632-M5360278,Entre 0 y 5 años,6,2026-05-31
16632-M4865699,"{'id': '2', 'nombre': 'Casa'}",1500000000,1162,1162,4,5,1,"{'id': '9', 'nombre': 'Manizales'}",,LA FRANCIA/ ATARDECERES,La Francia/ Atardeceres,,ORGANIZACION BRANDO u0026 COMPAÑÍA SAS,Usado,"{'lon': -75.53262, 'lat': 5.0682726}",https://www.metrocuadrado.com/inmueble/venta-casa-manizales-la-francia-atardeceres-4-habitaciones-5-banos-1-garajes/16632-M4865699,Más de 20 años,6,2026-05-31
16632-M6626876,"{'id': '2', 'nombre': 'Casa'}",1550000000,800,800,5,3,4,"{'id': '4720', 'nombre': 'Villamaria'}",,NA,Llanitos,,ORGANIZACION BRANDO u0026 COMPAÑÍA SAS,Usado,"{'lon': -75.53843, 'lat': 4.991487}",https://www.metrocuadrado.com/inmueble/venta-casa-villamaria-na-5-habitaciones-3-banos-4-garajes/16632-M6626876,Entre 0 y 5 años,1,2026-05-31
