propertyId,propertyType,salePrice,area,areac,rooms,bathrooms,garages,city,zone,neighborhood,commonNeighborhood,adminPrice,companyName,propertyState,coordinates,link,builtTime,stratum,Extraction Date
20065-M6666876,"{'id': '2', 'nombre': 'Casa'}",1300000000,910.0,215.0,5,5,3,"{'id': '1', 'nombre': 'Bogotá D.C.'}","{'id': '1', 'nombre': 'Norte'}",SAN ISIDRO,CHAPINERO,0.0,VERLUMA CONSULTING SAS,Usado,"{'lon': -74.0171, 'lat': 4.669885}",https://www.metrocuadrado.com/inmueble/venta-casa-bogota-san-isidro-5-habitaciones-5-banos-3-garajes/20065-M6666876,Más de 20 años,5,2026-06-05
10139-M6638168,"{'id': '2', 'nombre': 'Casa'}",1450000000,187.0,200.0,3,4,3,"{'id': '1', 'nombre': 'Bogotá D.C.'}","{'id': '1', 'nombre': 'Norte'}",FOLEDO,TOLEDO,1000000.0,Diana Rodríguez Fernandez,Usado,"{'lon': -74.03434, 'lat': 4.7114654}",https://www.metrocuadrado.com/inmueble/venta-casa-bogota-foledo-3-habitaciones-4-banos-3-garajes/10139-M6638168,Remodelado,5,2026-06-05
MC6536537,"{'id': '2', 'nombre': 'Casa'}",3500000000,239.0,725.0,4,5,1,"{'id': '1', 'nombre': 'Bogotá D.C.'}","{'id': '4', 'nombre': 'Occidental'}",SAN MIGUEL,SAN MIGUEL CAMINOS DEL VIENTO   Nicolás de Federmán,0.0,,Usado,"{'lon': -74.07812, 'lat': 4.662923}",https://www.metrocuadrado.com/inmueble/venta-casa-bogota-san-miguel-4-habitaciones-5-banos-1-garajes/MC6536537,Entre 5 y 10 años,4,2026-06-05
18345-M5665459,"{'id': '2', 'nombre': 'Casa'}",850000000,420.0,420.0,4,4,2,"{'id': '1', 'nombre': 'Bogotá D.C.'}","{'id': '2', 'nombre': 'Chapinero'}",ALFONSO LOPEZ,PALERMO,11111.0,TODO INMUEBLES COLOMBIA,Usado,"{'lon': -74.07251, 'lat': 4.6378984}",https://www.metrocuadrado.com/inmueble/venta-casa-bogota-alfonso-lopez-4-habitaciones-4-banos-2-garajes/18345-M5665459,Más de 20 años,4,2026-06-05
10931-M6639644,"{'id': '2', 'nombre': 'Casa'}",649000000,120.0,120.0,3,2,1,"{'id': '1', 'nombre': 'Bogotá D.C.'}","{'id': '102', 'nombre': 'Otros'}",VILLA DEL PRADO,VILLA DEL PRADO,0.0,SABANA HOGAR INMOBILIARIA.,Usado,"{'lon': -74.054245, 'lat': 4.7567043}",https://www.metrocuadrado.com/inmueble/venta-casa-bogota-villa-del-prado-3-habitaciones-2-banos-1-garajes/10931-M6639644,Más de 20 años,4,2026-06-05
16969-M6269879,"{'id': '2', 'nombre': 'Casa'}",1226000000,250.0,260.0,4,3,3,"{'id': '1', 'nombre': 'Bogotá D.C.'}",,LAS VILLAS,Las Villas,,Luz Marina Bermudez Agente Inmobiliario,Usado,"{'lon': -74.07172, 'lat': 4.7173877}",https://www.metrocuadrado.com/inmueble/venta-casa-bogota-las-villas-4-habitaciones-3-banos-3-garajes/16969-M6269879,Más de 20 años,4,2026-06-05
MC6529290,"{'id': '2', 'nombre': 'Casa'}",1400000000,192.5,192.5,3,4,2,"{'id': '1', 'nombre': 'Bogotá D.C.'}","{'id': '3', 'nombre': 'Noroccidente'}",SUBA NARANJOS,BALCONES DE LINDARAJA   Zona Urbana,,,Usado,"{'lon': -74.08211, 'lat': 4.7142663}",https://www.metrocuadrado.com/inmueble/venta-casa-bogota-suba-naranjos-3-habitaciones-4-banos-2-garajes/MC6529290,Más de 20 años,6,2026-06-05
20197-M6495437,"{'id': '2', 'nombre': 'Casa'}",990000000,151.87,170.12,3,4,2,"{'id': '1', 'nombre': 'Bogotá D.C.'}","{'id': '7', 'nombre': 'Guaymaral'}",CASA BLANCA,MORA VERDE ETAPA 1,1033500.0,Su0026F Inversiones,Usado,"{'lon': -74.06, 'lat': 4.7939687}",https://www.metrocuadrado.com/inmueble/venta-casa-bogota-casa-blanca-3-habitaciones-4-banos-2-garajes/20197-M6495437,Entre 10 y 20 años,6,2026-06-05
MC5514156,"{'id': '2', 'nombre': 'Casa'}",870000000,528.0,528.0,5,5,2,"{'id': '1', 'nombre': 'Bogotá D.C.'}","{'id': '3', 'nombre': 'Noroccidente'}",LA SERENA,LA SERENA   Engativá,0.0,,Usado,"{'lon': -74.09274, 'lat': 4.707908}",https://www.metrocuadrado.com/inmueble/venta-casa-bogota-la-serena-5-habitaciones-5-banos-2-garajes/MC5514156,Más de 20 años,3,2026-06-05
12633-M6642744,"{'id': '2', 'nombre': 'Casa'}",1600000000,276.0,276.0,5,2,0,"{'id': '1', 'nombre': 'Bogotá D.C.'}","{'id': '3', 'nombre': 'Noroccidente'}",LA CASTELLANA,LA CASTELLANA,0.0,INGEACCI - AVALUOS E INGENIERIA S.A.S.,Usado,"{'lon': -74.064415, 'lat': 4.6802993}",https://www.metrocuadrado.com/inmueble/venta-casa-bogota-la-castellana-5-habitaciones-2-banos/12633-M6642744,Más de 20 años,4,2026-06-05
MC4990839,"{'id': '2', 'nombre': 'Casa'}",730000000,160.0,185.0,4,2,2,"{'id': '1', 'nombre': 'Bogotá D.C.'}","{'id': '4', 'nombre': 'Occidental'}",MANDALAY ET  II,MANDALAY   Kennedy,0.0,,Usado,"{'lon': -74.14395, 'lat': 4.6250005}",https://www.metrocuadrado.com/inmueble/venta-casa-bogota-mandalay-et.-ii-4-habitaciones-2-banos-2-garajes/MC4990839,Remodelado,3,2026-06-05
20449-M5942801,"{'id': '2', 'nombre': 'Casa'}",460000000,210.0,210.0,5,2,0,"{'id': '1', 'nombre': 'Bogotá D.C.'}",,QUIROGA,Quiroga,0.0,BLUE SMART INMOBILIARIA  SAS,Usado,"{'lon': -74.11091, 'lat': 4.58234}",https://www.metrocuadrado.com/inmueble/venta-casa-bogota-quiroga-5-habitaciones-2-banos/20449-M5942801,Más de 20 años,3,2026-06-05
MC6722033,"{'id': '2', 'nombre': 'Casa'}",260000000,250.0,250.0,1,1,3,"{'id': '1', 'nombre': 'Bogotá D.C.'}","{'id': '5', 'nombre': 'Centro'}",LOURDES,LOURDES CENTRO   Centro y Zona Colonial,,,Usado,"{'lon': -74.07389, 'lat': 4.5882025}",https://www.metrocuadrado.com/inmueble/venta-casa-bogota-lourdes-1-habitaciones-1-banos-3-garajes/MC6722033,Más de 20 años,2,2026-06-05
MC6726060,"{'id': '2', 'nombre': 'Casa'}",1050000000,300.0,320.0,5,4,4,"{'id': '1', 'nombre': 'Bogotá D.C.'}","{'id': '4', 'nombre': 'Occidental'}",COMUNEROS,VERAGUAS CENTRAL   Centro y Zona Colonial,,,Usado,"{'lon': -74.1027, 'lat': 4.6081967}",https://www.metrocuadrado.com/inmueble/venta-casa-bogota-comuneros-5-habitaciones-4-banos-4-garajes/MC6726060,Más de 20 años,3,2026-06-05
20485-M6146991,"{'id': '2', 'nombre': 'Casa'}",2200000000,390.0,390.0,4,4,4,"{'id': '1', 'nombre': 'Bogotá D.C.'}","{'id': '7', 'nombre': 'Guaymaral'}",CASA BLANCA,SAN SIMON GUAYMARAL,2000000.0,Beatriz Pardo,Usado,"{'lon': -74.05335, 'lat': 4.819516}",https://www.metrocuadrado.com/inmueble/venta-casa-bogota-casa-blanca-4-habitaciones-4-banos-4-garajes/20485-M6146991,Entre 10 y 20 años,6,2026-06-05
21597-M6715141,"{'id': '2', 'nombre': 'Casa'}",405000000,74.0,74.0,3,3,1,"{'id': '1', 'nombre': 'Bogotá D.C.'}","{'id': '3', 'nombre': 'Noroccidente'}",CR BACATA RESERVADO,PORTALES DEL NORTE,350000.0,JAVIER ERNESTO DIAZ,Usado,"{'lon': -74.0674, 'lat': 4.7499027}",https://www.metrocuadrado.com/inmueble/venta-casa-bogota-cr-bacata-reservado-3-habitaciones-3-banos-1-garajes/21597-M6715141,Más de 20 años,4,2026-06-05
20485-M6731441,"{'id': '2', 'nombre': 'Casa'}",2800000000,1500.0,550.0,4,5,4,"{'id': '1', 'nombre': 'Bogotá D.C.'}","{'id': '7', 'nombre': 'Guaymaral'}",CASA BLANCA,GUAYMARAL SAN SIMON,2000000.0,Beatriz Pardo,Usado,"{'lon': -74.042656, 'lat': 4.816545}",https://www.metrocuadrado.com/inmueble/venta-casa-bogota-casa-blanca-4-habitaciones-5-banos-4-garajes/20485-M6731441,Entre 5 y 10 años,6,2026-06-05
