propertyId,propertyType,salePrice,area,areac,rooms,bathrooms,garages,city,zone,neighborhood,commonNeighborhood,adminPrice,companyName,propertyState,coordinates,link,builtTime,stratum,Extraction Date
17776-M6026615,"{'id': '2', 'nombre': 'Casa'}",540000000,140,140,4,2,1,"{'id': '3', 'nombre': 'Medellín'}",,BELEN LA GLORIA,Belen La Gloria,,GESTION COMPAÑÍA  INMOBILIARIA SAS,Usado,"{'lon': -75.59808, 'lat': 6.22355}",https://www.metrocuadrado.com/inmueble/venta-casa-medellin-belen-la-gloria-4-habitaciones-2-banos-1-garajes/17776-M6026615,Más de 20 años,4,2025-11-30
12782-M5486694,"{'id': '2', 'nombre': 'Casa'}",1300000000,238,238,5,5,1,"{'id': '3', 'nombre': 'Medellín'}","{'id': '36', 'nombre': 'Nororiente'}",LOS ANGELES,Boston,,SUINMOBILIARIA,Usado,"{'lon': -75.5583, 'lat': 6.25192}",https://www.metrocuadrado.com/inmueble/venta-casa-medellin-los-angeles-5-habitaciones-5-banos-1-garajes/12782-M5486694,Más de 20 años,4,2025-11-30
2511-M6015398,"{'id': '2', 'nombre': 'Casa'}",1800000000,300,300,5,4,2,"{'id': '3', 'nombre': 'Medellín'}","{'id': '35', 'nombre': 'Noroccidente'}",CUARTA BRIGADA,Estadio,,RASKCIELOS INMOBILIARIA Y CONSTRUCTORA,Usado,"{'lon': -75.58726, 'lat': 6.2614613}",https://www.metrocuadrado.com/inmueble/venta-casa-medellin-cuarta-brigada-5-habitaciones-4-banos-2-garajes/2511-M6015398,Entre 0 y 5 años,5,2025-11-30
19121-M6061245,"{'id': '2', 'nombre': 'Casa'}",650000000,147,147,4,3,1,"{'id': '3', 'nombre': 'Medellín'}","{'id': '37', 'nombre': 'Suroccidente'}",ROSALES,BELEN ROSALES,0.0,KateSanchezRealstate,Usado,"{'lon': -75.590256, 'lat': 6.2348523}",https://www.metrocuadrado.com/inmueble/venta-casa-medellin-rosales-4-habitaciones-3-banos-1-garajes/19121-M6061245,Más de 20 años,5,2025-11-30
MC5999065,"{'id': '2', 'nombre': 'Casa'}",1200000000,212,230,4,3,1,"{'id': '3', 'nombre': 'Medellín'}","{'id': '35', 'nombre': 'Noroccidente'}",BOSQUES DE SAN PABLO,BOSQUES DE SAN PABLO   Zona Urbana ,0.0,,Usado,"{'lon': -75.58058, 'lat': 6.27477}",https://www.metrocuadrado.com/inmueble/venta-casa-medellin-bosques-de-san-pablo-4-habitaciones-3-banos-1-garajes/MC5999065,Más de 20 años,4,2025-11-30
11469-M5961667,"{'id': '2', 'nombre': 'Casa'}",650000000,150,150,3,2,1,"{'id': '3', 'nombre': 'Medellín'}","{'id': '35', 'nombre': 'Noroccidente'}",LOS COLORES,Estadio,650000.0,RHB RAÍZ,Usado,"{'lon': -75.594315, 'lat': 6.2625475}",https://www.metrocuadrado.com/inmueble/venta-casa-medellin-los-colores-3-habitaciones-2-banos-1-garajes/11469-M5961667,Entre 5 y 10 años,5,2025-11-30
