propertyId,propertyType,salePrice,area,areac,rooms,bathrooms,garages,city,zone,neighborhood,commonNeighborhood,adminPrice,companyName,propertyState,coordinates,link,builtTime,stratum,Extraction Date
14273-M5493747,"{'id': '2', 'nombre': 'Casa'}",2190000000,354.0,354.0,3,3,2,"{'id': '3', 'nombre': 'Medellín'}","{'id': '37', 'nombre': 'Suroccidente'}",EL NOGAL LOS ALMENDROS,Belen Nogal,,INMOBILIARIA ALBORADA,Usado,"{'lon': -75.59742, 'lat': 6.2384768}",https://www.metrocuadrado.com/inmueble/venta-casa-medellin-el-nogal-los-almendros-3-habitaciones-3-banos-2-garajes/14273-M5493747,Más de 20 años,5,2025-05-18
13179-M5674382,"{'id': '2', 'nombre': 'Casa'}",680000000,200.0,200.0,4,3,0,"{'id': '3', 'nombre': 'Medellín'}","{'id': '35', 'nombre': 'Noroccidente'}",LOS COLORES,LOS COLORES,0.0,ANGELES INMOBILIARIA ,Usado,"{'lon': -75.59246, 'lat': 6.2665844}",https://www.metrocuadrado.com/inmueble/venta-casa-medellin-los-colores-4-habitaciones-3-banos/13179-M5674382,Entre 5 y 10 años,4,2025-05-18
13094-M5655256,"{'id': '2', 'nombre': 'Casa'}",1200000000,198.38,145.37,3,3,2,"{'id': '3', 'nombre': 'Medellín'}","{'id': '38', 'nombre': 'Suroriente'}",ALTOS DEL POBLADO,Altos Del Poblado,605000.0,INMOBILIARIA SELECTA,Usado,"{'lon': -75.555145, 'lat': 6.215491}",https://www.metrocuadrado.com/inmueble/venta-casa-medellin-altos-del-poblado-3-habitaciones-3-banos-2-garajes/13094-M5655256,Entre 10 y 20 años,6,2025-05-18
687-M5193986,"{'id': '2', 'nombre': 'Casa'}",1600000000,260.0,260.0,4,5,2,"{'id': '3', 'nombre': 'Medellín'}","{'id': '38', 'nombre': 'Suroriente'}",EL TESORO,EL POBLADO,150000.0,PROINTEGRAL SA,Usado,"{'lon': -75.55573, 'lat': 6.2033477}",https://www.metrocuadrado.com/inmueble/venta-casa-medellin-el-tesoro-4-habitaciones-5-banos-2-garajes/687-M5193986,Más de 20 años,6,2025-05-18
17134-M5596737,"{'id': '2', 'nombre': 'Casa'}",1580000000,265.0,265.0,4,4,4,"{'id': '3', 'nombre': 'Medellín'}",,LOS BALSOS NO 1,Loma De Los Gonzalez,756000.0,RICARDO ÁNGEL B. VENTA DE PROPIEDAD RAIZ,Usado,"{'lon': -75.55882, 'lat': 6.190846}",https://www.metrocuadrado.com/inmueble/venta-casa-medellin-los-balsos-no.1-4-habitaciones-4-banos-4-garajes/17134-M5596737,Más de 20 años,6,2025-05-18
14273-M5493747,"{'id': '2', 'nombre': 'Casa'}",2190000000,354.0,354.0,3,3,2,"{'id': '3', 'nombre': 'Medellín'}","{'id': '37', 'nombre': 'Suroccidente'}",EL NOGAL LOS ALMENDROS,Belen Nogal,,INMOBILIARIA ALBORADA,Usado,"{'lon': -75.59742, 'lat': 6.2384768}",https://www.metrocuadrado.com/inmueble/venta-casa-medellin-el-nogal-los-almendros-3-habitaciones-3-banos-2-garajes/14273-M5493747,Más de 20 años,5,2025-05-18
