propertyId,propertyType,salePrice,area,areac,rooms,bathrooms,garages,city,zone,neighborhood,commonNeighborhood,adminPrice,companyName,propertyState,coordinates,link,builtTime,stratum,Extraction Date
465-M5761672,"{'id': '2', 'nombre': 'Casa'}",1190000000,351.0,351.0,5,5,1,"{'id': '1', 'nombre': 'Bogotá D.C.'}","{'id': '2', 'nombre': 'Chapinero'}",CHAPINERO SUR OCCIDENTAL,DIVINO SALVADOR,10000,EL ATIKO BIENES RAICES SAS,Usado,"{'lon': -74.06812, 'lat': 4.644919}",https://www.metrocuadrado.com/inmueble/venta-casa-bogota-chapinero-sur-occidental-5-habitaciones-5-banos-1-garajes/465-M5761672,Más de 20 años,4,2025-09-22
2731-M6011028,"{'id': '2', 'nombre': 'Casa'}",1900000000,239.0,320.0,3,3,3,"{'id': '1', 'nombre': 'Bogotá D.C.'}","{'id': '3', 'nombre': 'Noroccidente'}",EL RECREO DE LOS FRAILES,recreo de los frailes batan,650000,PALACIO FINCA RAIZ,Usado,"{'lon': -74.0634, 'lat': 4.7066307}",https://www.metrocuadrado.com/inmueble/venta-casa-bogota-el-recreo-de-los-frailes-3-habitaciones-3-banos-3-garajes/2731-M6011028,Remodelado,5,2025-09-22
16288-M5963047,"{'id': '2', 'nombre': 'Casa'}",950000000,315.0,315.0,4,4,3,"{'id': '1', 'nombre': 'Bogotá D.C.'}","{'id': '3', 'nombre': 'Noroccidente'}",NIZA,NIZA ANTIGUA,0,INVERAIZ.COM SAS ,Usado,"{'lon': -74.075775, 'lat': 4.7045264}",https://www.metrocuadrado.com/inmueble/venta-casa-bogota-niza-4-habitaciones-4-banos-3-garajes/16288-M5963047,Más de 20 años,5,2025-09-22
MC6056959,"{'id': '2', 'nombre': 'Casa'}",520000000,300.0,300.0,5,4,1,"{'id': '1', 'nombre': 'Bogotá D.C.'}","{'id': '3', 'nombre': 'Noroccidente'}",CIUDAD BACHUE ET  I,BACHUE ETAPA I   Cortijo Autopista Medellín,0,,Usado,"{'lon': -74.10032, 'lat': 4.714459}",https://www.metrocuadrado.com/inmueble/venta-casa-bogota-ciudad-bachue-et.-i-5-habitaciones-4-banos-1-garajes/MC6056959,Más de 20 años,2,2025-09-22
MC6061719,"{'id': '2', 'nombre': 'Casa'}",580000000,120.0,120.0,3,2,2,"{'id': '1', 'nombre': 'Bogotá D.C.'}","{'id': '4', 'nombre': 'Occidental'}",VILLA ALSACIA 2,VILLA ALSACIA   Kennedy,0,,Usado,"{'lon': -74.136856, 'lat': 4.641595}",https://www.metrocuadrado.com/inmueble/venta-casa-bogota-villa-alsacia-2-3-habitaciones-2-banos-2-garajes/MC6061719,Más de 20 años,3,2025-09-22
18378-M6061152,"{'id': '2', 'nombre': 'Casa'}",1200000000,110.7,110.7,3,2,0,"{'id': '1', 'nombre': 'Bogotá D.C.'}","{'id': '2', 'nombre': 'Chapinero'}",SANTA TERESITA,santa teresita teusaquillo,0,Luz Marina Urrego Rodriguez,Usado,"{'lon': -74.06881, 'lat': 4.630553}",https://www.metrocuadrado.com/inmueble/venta-casa-bogota-santa-teresita-3-habitaciones-2-banos/18378-M6061152,Más de 20 años,4,2025-09-22
