propertyId,propertyType,salePrice,area,areac,rooms,bathrooms,garages,city,zone,neighborhood,commonNeighborhood,adminPrice,companyName,propertyState,coordinates,link,builtTime,stratum,Extraction Date
5570-M4926560,"{'id': '2', 'nombre': 'Casa'}",1400000000,340,340,4,5,2,"{'id': '3', 'nombre': 'Medellín'}","{'id': '38', 'nombre': 'Suroriente'}",LAS LOMAS NO 2,EL POBLADO EL TESORO,1050000000.0,GOMEZ SIERRA PROPIEDADES,Usado,"{'lon': -75.55632, 'lat': 6.210478}",https://www.metrocuadrado.com/inmueble/venta-casa-medellin-las-lomas-no.2-4-habitaciones-5-banos-2-garajes/5570-M4926560,Más de 20 años,6,2025-08-25
20765-M5995958,"{'id': '2', 'nombre': 'Casa'}",13500000000,13500,1800,5,5,4,"{'id': '3', 'nombre': 'Medellín'}",,NA,Alto De Las Palmas,,PROVENTO INMOBILIARIA SAS,Usado,"{'lon': 0, 'lat': 0}",https://www.metrocuadrado.com/inmueble/venta-casa-medellin-na-5-habitaciones-5-banos-4-garajes/20765-M5995958,Entre 0 y 5 años,6,2025-08-25
5570-M3610463,"{'id': '2', 'nombre': 'Casa'}",7000000000,900,900,5,5,3,"{'id': '3', 'nombre': 'Medellín'}",,NA,EL POBLADO LAS PALMAS,1588000.0,GOMEZ SIERRA PROPIEDADES,Usado,"{'lon': -75.54516, 'lat': 6.172651}",https://www.metrocuadrado.com/inmueble/venta-casa-medellin-na-5-habitaciones-5-banos-3-garajes/5570-M3610463,Entre 0 y 5 años,6,2025-08-25
MC5999065,"{'id': '2', 'nombre': 'Casa'}",1200000000,212,230,4,3,1,"{'id': '3', 'nombre': 'Medellín'}","{'id': '35', 'nombre': 'Noroccidente'}",BOSQUES DE SAN PABLO,BOSQUES DE SAN PABLO   Zona Urbana ,0.0,,Usado,"{'lon': -75.58058, 'lat': 6.27477}",https://www.metrocuadrado.com/inmueble/venta-casa-medellin-bosques-de-san-pablo-4-habitaciones-3-banos-1-garajes/MC5999065,Más de 20 años,4,2025-08-25
MC6005547,"{'id': '2', 'nombre': 'Casa'}",1700000000,350,350,5,5,1,"{'id': '3', 'nombre': 'Medellín'}","{'id': '37', 'nombre': 'Suroccidente'}",ROSALES,BELEN ALAMEDA   Noroccidente,0.0,,Usado,"{'lon': -75.59525, 'lat': 6.2365637}",https://www.metrocuadrado.com/inmueble/venta-casa-medellin-rosales-5-habitaciones-5-banos-1-garajes/MC6005547,Más de 20 años,5,2025-08-25
17149-M5786166,"{'id': '2', 'nombre': 'Casa'}",720000000,118,118,4,5,2,"{'id': '3', 'nombre': 'Medellín'}","{'id': '36', 'nombre': 'Nororiente'}",ASOMADERA NO 2,EL POBLADO LOMA DEL INDIO,560000.0,Yamile Yamile Rodriguez,Usado,"{'lon': -75.56358, 'lat': 6.229172}",https://www.metrocuadrado.com/inmueble/venta-casa-medellin-asomadera-no.2-4-habitaciones-5-banos-2-garajes/17149-M5786166,Entre 10 y 20 años,4,2025-08-25
17149-M5859787,"{'id': '2', 'nombre': 'Casa'}",920000000,180,180,4,2,1,"{'id': '3', 'nombre': 'Medellín'}","{'id': '37', 'nombre': 'Suroccidente'}",LA GLORIA,BELEN LA GLORIA,0.0,Yamile Yamile Rodriguez,Usado,"{'lon': -75.60038, 'lat': 6.224372}",https://www.metrocuadrado.com/inmueble/venta-casa-medellin-la-gloria-4-habitaciones-2-banos-1-garajes/17149-M5859787,Más de 20 años,4,2025-08-25
12116-M5333743,"{'id': '2', 'nombre': 'Casa'}",930000000,198,198,5,4,2,"{'id': '3', 'nombre': 'Medellín'}","{'id': '37', 'nombre': 'Suroccidente'}",LA MOTA,BELEN,545000.0,GRUPO INMOBILIARIO CABAL SAS,Usado,"{'lon': -75.59899, 'lat': 6.2089295}",https://www.metrocuadrado.com/inmueble/venta-casa-medellin-la-mota-5-habitaciones-4-banos-2-garajes/12116-M5333743,Entre 10 y 20 años,4,2025-08-25
19797-M5979944,"{'id': '2', 'nombre': 'Casa'}",6000000000,1071,460,4,5,4,"{'id': '3', 'nombre': 'Medellín'}",,ALTO DE LAS PALMAS,Alto De Las Palmas,752000.0,HOMES INMOBILIARIA,Usado,"{'lon': -75.65991, 'lat': 4.8592386}",https://www.metrocuadrado.com/inmueble/venta-casa-medellin-alto-de-las-palmas-4-habitaciones-5-banos-4-garajes/19797-M5979944,Entre 0 y 5 años,5,2025-08-25
19797-M5979946,"{'id': '2', 'nombre': 'Casa'}",6500000000,450,450,4,5,4,"{'id': '3', 'nombre': 'Medellín'}",,EL POBLADO,El Poblado,850000.0,HOMES INMOBILIARIA,Usado,"{'lon': -75.56582, 'lat': 6.2476377}",https://www.metrocuadrado.com/inmueble/venta-casa-medellin-el-poblado-4-habitaciones-5-banos-4-garajes/19797-M5979946,Entre 5 y 10 años,6,2025-08-25
19797-M5980091,"{'id': '2', 'nombre': 'Casa'}",2500000000,407,407,5,5,4,"{'id': '3', 'nombre': 'Medellín'}",,ENVIGADO,Envigado,280000.0,HOMES INMOBILIARIA,Usado,"{'lon': -75.56522, 'lat': 6.2268887}",https://www.metrocuadrado.com/inmueble/venta-casa-medellin-envigado-5-habitaciones-5-banos-4-garajes/19797-M5980091,Entre 10 y 20 años,5,2025-08-25
687-M5618619,"{'id': '2', 'nombre': 'Casa'}",1050000000,246,246,3,4,2,"{'id': '3', 'nombre': 'Medellín'}","{'id': '38', 'nombre': 'Suroriente'}",CASTROPOL,EL POBLADO,650000.0,PROINTEGRAL SA,Usado,"{'lon': -75.56684, 'lat': 6.2158895}",https://www.metrocuadrado.com/inmueble/venta-casa-medellin-castropol-3-habitaciones-4-banos-2-garajes/687-M5618619,Entre 5 y 10 años,6,2025-08-25
