propertyId,propertyType,salePrice,area,areac,rooms,bathrooms,garages,city,zone,neighborhood,commonNeighborhood,adminPrice,companyName,propertyState,coordinates,link,builtTime,stratum,Extraction Date
2412-M6352922,"{'id': '2', 'nombre': 'Casa'}",1450000000,270.0,302.0,3,5,4,"{'id': '1', 'nombre': 'Bogotá D.C.'}",,GRATAMIRA,Gratamira,1543000.0,Oportunidades Inmobiliarias,Usado,"{'lon': -74.074486, 'lat': 4.730885}",https://www.metrocuadrado.com/inmueble/venta-casa-bogota-gratamira-3-habitaciones-5-banos-4-garajes/2412-M6352922,Más de 20 años,6,2026-02-08
754-M4843629,"{'id': '2', 'nombre': 'Casa'}",1350000000,190.0,190.0,4,5,2,"{'id': '1', 'nombre': 'Bogotá D.C.'}","{'id': '3', 'nombre': 'Noroccidente'}",CIUDAD JARDIN NORTE,IBERIA I,710000.0,Consuelo de la Vega,Usado,"{'lon': -74.072136, 'lat': 4.721517}",https://www.metrocuadrado.com/inmueble/venta-casa-bogota-ciudad-jardin-norte-4-habitaciones-5-banos-2-garajes/754-M4843629,Entre 10 y 20 años,5,2026-02-08
11204-M6291849,"{'id': '2', 'nombre': 'Casa'}",3500000000,800.0,600.0,4,4,4,"{'id': '1', 'nombre': 'Bogotá D.C.'}","{'id': '3', 'nombre': 'Noroccidente'}",SAN JOSE DE BAVARIA,SAN JOSE DE BAVARIA,1800000.0,CLAUDIA MEDINA,Usado,"{'lon': -74.06379, 'lat': 4.76755}",https://www.metrocuadrado.com/inmueble/venta-casa-bogota-san-jose-de-bavaria-4-habitaciones-4-banos-4-garajes/11204-M6291849,Remodelado,5,2026-02-08
MC6363117,"{'id': '2', 'nombre': 'Casa'}",565000000,110.0,110.0,4,3,1,"{'id': '1', 'nombre': 'Bogotá D.C.'}","{'id': '6', 'nombre': 'Sur'}",20 DE JULIO,EL SOSIEGO   Rafael Uribe Uribe Tunjuelito,,,Usado,"{'lon': -74.094215, 'lat': 4.573703}",https://www.metrocuadrado.com/inmueble/venta-casa-bogota-20-de-julio-4-habitaciones-3-banos-1-garajes/MC6363117,Más de 20 años,3,2026-02-08
14121-M6006535,"{'id': '2', 'nombre': 'Casa'}",1850000000,368.0,368.0,4,4,3,"{'id': '1', 'nombre': 'Bogotá D.C.'}","{'id': '3', 'nombre': 'Noroccidente'}",NIZA SUBA,ALTOS DE SOTILEZA,1500000.0,C22INMO,Usado,"{'lon': -74.079124, 'lat': 4.720906}",https://www.metrocuadrado.com/inmueble/venta-casa-bogota-niza-suba-4-habitaciones-4-banos-3-garajes/14121-M6006535,Más de 20 años,6,2026-02-08
14121-M6094137,"{'id': '2', 'nombre': 'Casa'}",1300000000,359.0,359.0,3,5,2,"{'id': '1', 'nombre': 'Bogotá D.C.'}","{'id': '3', 'nombre': 'Noroccidente'}",NIZA SUBA,ALTOS DE SOTILEZA,1500000.0,C22INMO,Usado,"{'lon': -74.079124, 'lat': 4.720906}",https://www.metrocuadrado.com/inmueble/venta-casa-bogota-niza-suba-3-habitaciones-5-banos-2-garajes/14121-M6094137,Más de 20 años,6,2026-02-08
MC6047603,"{'id': '2', 'nombre': 'Casa'}",550000000,120.0,185.0,5,3,2,"{'id': '1', 'nombre': 'Bogotá D.C.'}","{'id': '4', 'nombre': 'Occidental'}",TABORA,TABORA   Engativá,0.0,,Usado,"{'lon': -74.10172, 'lat': 4.693252}",https://www.metrocuadrado.com/inmueble/venta-casa-bogota-tabora-5-habitaciones-3-banos-2-garajes/MC6047603,Más de 20 años,3,2026-02-08
MC5793861,"{'id': '2', 'nombre': 'Casa'}",640000000,120.0,199.0,4,3,2,"{'id': '1', 'nombre': 'Bogotá D.C.'}","{'id': '4', 'nombre': 'Occidental'}",EL ENCANTO,EL ENCANTO   Normandía,185000.0,,Usado,"{'lon': -74.105255, 'lat': 4.676691}",https://www.metrocuadrado.com/inmueble/venta-casa-bogota-el-encanto-4-habitaciones-3-banos-2-garajes/MC5793861,Más de 20 años,3,2026-02-08
MC6298229,"{'id': '2', 'nombre': 'Casa'}",2500000,1370.0,350.0,4,4,2,"{'id': '1', 'nombre': 'Bogotá D.C.'}","{'id': '7', 'nombre': 'Guaymaral'}",CASA BLANCA,SAN SIMON GUAYMARAL   Guaymaral,,,Usado,"{'lon': -74.048325, 'lat': 4.8181877}",https://www.metrocuadrado.com/inmueble/venta-casa-bogota-casa-blanca-4-habitaciones-4-banos-2-garajes/MC6298229,Remodelado,6,2026-02-08
11295-M6366206,"{'id': '2', 'nombre': 'Casa'}",1010903018,202.44,316.0,5,4,1,"{'id': '1', 'nombre': 'Bogotá D.C.'}","{'id': '4', 'nombre': 'Occidental'}",LA ESMERALDA,LA SOLEDAD TEUSAQUILLO,0.0,NC BUSINESS,Usado,"{'lon': -74.090706, 'lat': 4.6422763}",https://www.metrocuadrado.com/inmueble/venta-casa-bogota-la-esmeralda-5-habitaciones-4-banos-1-garajes/11295-M6366206,Entre 5 y 10 años,4,2026-02-08
15738-M4822662,"{'id': '2', 'nombre': 'Casa'}",980000000,157.0,157.0,4,3,3,"{'id': '1', 'nombre': 'Bogotá D.C.'}",,CEDRITOS,Cedritos,150000.0,Mr.inmobiliaria,Usado,"{'lon': -74.03946, 'lat': 4.7378445}",https://www.metrocuadrado.com/inmueble/venta-casa-bogota-cedritos-4-habitaciones-3-banos-3-garajes/15738-M4822662,Más de 20 años,4,2026-02-08
MC6291694,"{'id': '2', 'nombre': 'Casa'}",700000000,141.81,156.96,3,3,2,"{'id': '1', 'nombre': 'Bogotá D.C.'}","{'id': '3', 'nombre': 'Noroccidente'}",SUBA URBANO,SUBA URBAN0   Altos de Suba y Cerros de San Jorge,,,Usado,"{'lon': -74.08269, 'lat': 4.743771}",https://www.metrocuadrado.com/inmueble/venta-casa-bogota-suba-urbano-3-habitaciones-3-banos-2-garajes/MC6291694,Entre 5 y 10 años,4,2026-02-08
MC6358983,"{'id': '2', 'nombre': 'Casa'}",1400000000,200.0,200.0,4,4,0,"{'id': '1', 'nombre': 'Bogotá D.C.'}","{'id': '2', 'nombre': 'Chapinero'}",ALFONSO LOPEZ,GALERIAS   La Soledad,,,Usado,"{'lon': -74.071594, 'lat': 4.640229}",https://www.metrocuadrado.com/inmueble/venta-casa-bogota-alfonso-lopez-4-habitaciones-4-banos/MC6358983,Remodelado,3,2026-02-08
MC6351644,"{'id': '2', 'nombre': 'Casa'}",1125000000,228.0,187.96,3,2,2,"{'id': '1', 'nombre': 'Bogotá D.C.'}","{'id': '3', 'nombre': 'Noroccidente'}",UB  CORDOBA NIZA,NIZA CORDOBA   Niza Alhambra,,,Usado,"{'lon': -74.06811, 'lat': 4.7082996}",https://www.metrocuadrado.com/inmueble/venta-casa-bogota-ub.-cordoba-niza-3-habitaciones-2-banos-2-garajes/MC6351644,Más de 20 años,5,2026-02-08
MC6319559,"{'id': '2', 'nombre': 'Casa'}",460000000,115.0,100.0,4,2,2,"{'id': '1', 'nombre': 'Bogotá D.C.'}","{'id': '4', 'nombre': 'Occidental'}",EL RINCON DE LOS ANGELES,RINCON DE LOS ANGELES   Zona Urbana,,,Usado,"{'lon': -74.14222, 'lat': 4.635244}",https://www.metrocuadrado.com/inmueble/venta-casa-bogota-el-rincon-de-los-angeles-4-habitaciones-2-banos-2-garajes/MC6319559,Más de 20 años,3,2026-02-08
MC6303945,"{'id': '2', 'nombre': 'Casa'}",890000000,403.0,403.0,5,4,2,"{'id': '1', 'nombre': 'Bogotá D.C.'}","{'id': '5', 'nombre': 'Centro'}",SANTA ISABEL SUR,SANTA ISABEL SUR   Centro y Zona Colonial,,,Usado,"{'lon': -74.104164, 'lat': 4.598384}",https://www.metrocuadrado.com/inmueble/venta-casa-bogota-santa-isabel-sur-5-habitaciones-4-banos-2-garajes/MC6303945,Más de 20 años,3,2026-02-08
MC6109571,"{'id': '2', 'nombre': 'Casa'}",1460000000,180.0,210.0,3,4,3,"{'id': '1', 'nombre': 'Bogotá D.C.'}","{'id': '3', 'nombre': 'Noroccidente'}",SAN JOSE DE BAVARIA,SAN JOSE DE BAVARIA   Zona Urbana,780000.0,,Usado,"{'lon': -74.06244, 'lat': 4.7621593}",https://www.metrocuadrado.com/inmueble/venta-casa-bogota-san-jose-de-bavaria-3-habitaciones-4-banos-3-garajes/MC6109571,Más de 20 años,5,2026-02-08
MC6358390,"{'id': '2', 'nombre': 'Casa'}",750000000,153.0,153.0,4,4,2,"{'id': '1', 'nombre': 'Bogotá D.C.'}","{'id': '1', 'nombre': 'Norte'}",PARQUES DE LORENA,CEDRITOS   Zona Urbana,886000.0,,Usado,"{'lon': -74.03714, 'lat': 4.732623}",https://www.metrocuadrado.com/inmueble/venta-casa-bogota-parques-de-lorena-4-habitaciones-4-banos-2-garajes/MC6358390,Más de 20 años,4,2026-02-08
10307-M6149637,"{'id': '2', 'nombre': 'Casa'}",1300000000,189.0,189.0,4,4,2,"{'id': '1', 'nombre': 'Bogotá D.C.'}","{'id': '7', 'nombre': 'Guaymaral'}",CONEJERA,CAMINO DE ARRAYANES,1185000.0,RAFAEL CALDAS ESCOBAR - CALDAS u0026 RIOS,Usado,"{'lon': -74.07066, 'lat': 4.800819}",https://www.metrocuadrado.com/inmueble/venta-casa-bogota-conejera-4-habitaciones-4-banos-2-garajes/10307-M6149637,Entre 10 y 20 años,6,2026-02-08
